{"type":"FeatureCollection","features":[{"type":"Feature","id":0,"geometry":{"type":"Point","coordinates":[139.69220000000001,35.689700000000002]},"properties":{"FID":0,"city":"Tokyo","city_ascii":"Tokyo","lat":35.689700000000002,"lng":139.69220000000001,"country":"Japan","iso2":"JP","iso3":"JPN","admin_name":"Tōkyō","capital":"primary","population":"37732000","id":"1392685764"}},{"type":"Feature","id":1,"geometry":{"type":"Point","coordinates":[106.8275,-6.1749999999999998]},"properties":{"FID":1,"city":"Jakarta","city_ascii":"Jakarta","lat":-6.1749999999999998,"lng":106.8275,"country":"Indonesia","iso2":"ID","iso3":"IDN","admin_name":"Jakarta","capital":"primary","population":"33756000","id":"1360771077"}},{"type":"Feature","id":2,"geometry":{"type":"Point","coordinates":[77.230000000000004,28.609999999999999]},"properties":{"FID":2,"city":"Delhi","city_ascii":"Delhi","lat":28.609999999999999,"lng":77.230000000000004,"country":"India","iso2":"IN","iso3":"IND","admin_name":"Delhi","capital":"admin","population":"32226000","id":"1356872604"}},{"type":"Feature","id":3,"geometry":{"type":"Point","coordinates":[113.26000000000001,23.129999999999999]},"properties":{"FID":3,"city":"Guangzhou","city_ascii":"Guangzhou","lat":23.129999999999999,"lng":113.26000000000001,"country":"China","iso2":"CN","iso3":"CHN","admin_name":"Guangdong","capital":"admin","population":"26940000","id":"1156237133"}},{"type":"Feature","id":4,"geometry":{"type":"Point","coordinates":[72.877499999999998,19.0761]},"properties":{"FID":4,"city":"Mumbai","city_ascii":"Mumbai","lat":19.0761,"lng":72.877499999999998,"country":"India","iso2":"IN","iso3":"IND","admin_name":"Mahārāshtra","capital":"admin","population":"24973000","id":"1356226629"}},{"type":"Feature","id":5,"geometry":{"type":"Point","coordinates":[120.9772,14.595800000000001]},"properties":{"FID":5,"city":"Manila","city_ascii":"Manila","lat":14.595800000000001,"lng":120.9772,"country":"Philippines","iso2":"PH","iso3":"PHL","admin_name":"Manila","capital":"primary","population":"24922000","id":"1608618140"}},{"type":"Feature","id":6,"geometry":{"type":"Point","coordinates":[121.4747,31.2286]},"properties":{"FID":6,"city":"Shanghai","city_ascii":"Shanghai","lat":31.2286,"lng":121.4747,"country":"China","iso2":"CN","iso3":"CHN","admin_name":"Shanghai","capital":"admin","population":"24073000","id":"1156073548"}},{"type":"Feature","id":7,"geometry":{"type":"Point","coordinates":[-46.633299999999998,-23.550000000000001]},"properties":{"FID":7,"city":"São Paulo","city_ascii":"Sao Paulo","lat":-23.550000000000001,"lng":-46.633299999999998,"country":"Brazil","iso2":"BR","iso3":"BRA","admin_name":"São Paulo","capital":"admin","population":"23086000","id":"1076532519"}},{"type":"Feature","id":8,"geometry":{"type":"Point","coordinates":[126.98999999999999,37.560000000000002]},"properties":{"FID":8,"city":"Seoul","city_ascii":"Seoul","lat":37.560000000000002,"lng":126.98999999999999,"country":"Korea, South","iso2":"KR","iso3":"KOR","admin_name":"Seoul","capital":"primary","population":"23016000","id":"1410836482"}},{"type":"Feature","id":9,"geometry":{"type":"Point","coordinates":[-99.133300000000006,19.433299999999999]},"properties":{"FID":9,"city":"Mexico City","city_ascii":"Mexico City","lat":19.433299999999999,"lng":-99.133300000000006,"country":"Mexico","iso2":"MX","iso3":"MEX","admin_name":"Ciudad de México","capital":"primary","population":"21804000","id":"1484247881"}},{"type":"Feature","id":10,"geometry":{"type":"Point","coordinates":[31.235800000000001,30.0444]},"properties":{"FID":10,"city":"Cairo","city_ascii":"Cairo","lat":30.0444,"lng":31.235800000000001,"country":"Egypt","iso2":"EG","iso3":"EGY","admin_name":"Al Qāhirah","capital":"primary","population":"20296000","id":"1818253931"}},{"type":"Feature","id":11,"geometry":{"type":"Point","coordinates":[-73.924899999999994,40.694299999999998]},"properties":{"FID":11,"city":"New York","city_ascii":"New York","lat":40.694299999999998,"lng":-73.924899999999994,"country":"United States","iso2":"US","iso3":"USA","admin_name":"New York","capital":" ","population":"18908608","id":"1840034016"}},{"type":"Feature","id":12,"geometry":{"type":"Point","coordinates":[90.388900000000007,23.7639]},"properties":{"FID":12,"city":"Dhaka","city_ascii":"Dhaka","lat":23.7639,"lng":90.388900000000007,"country":"Bangladesh","iso2":"BD","iso3":"BGD","admin_name":"Dhaka","capital":"primary","population":"18627000","id":"1050529279"}},{"type":"Feature","id":13,"geometry":{"type":"Point","coordinates":[116.39749999999999,39.906700000000001]},"properties":{"FID":13,"city":"Beijing","city_ascii":"Beijing","lat":39.906700000000001,"lng":116.39749999999999,"country":"China","iso2":"CN","iso3":"CHN","admin_name":"Beijing","capital":"primary","population":"18522000","id":"1156228865"}},{"type":"Feature","id":14,"geometry":{"type":"Point","coordinates":[88.370000000000005,22.567499999999999]},"properties":{"FID":14,"city":"Kolkāta","city_ascii":"Kolkata","lat":22.567499999999999,"lng":88.370000000000005,"country":"India","iso2":"IN","iso3":"IND","admin_name":"West Bengal","capital":"admin","population":"18502000","id":"1356060520"}},{"type":"Feature","id":15,"geometry":{"type":"Point","coordinates":[100.49420000000001,13.7525]},"properties":{"FID":15,"city":"Bangkok","city_ascii":"Bangkok","lat":13.7525,"lng":100.49420000000001,"country":"Thailand","iso2":"TH","iso3":"THA","admin_name":"Krung Thep Maha Nakhon","capital":"primary","population":"18007000","id":"1764068610"}},{"type":"Feature","id":16,"geometry":{"type":"Point","coordinates":[114.0596,22.541499999999999]},"properties":{"FID":16,"city":"Shenzhen","city_ascii":"Shenzhen","lat":22.541499999999999,"lng":114.0596,"country":"China","iso2":"CN","iso3":"CHN","admin_name":"Guangdong","capital":"minor","population":"17619000","id":"1156158707"}},{"type":"Feature","id":17,"geometry":{"type":"Point","coordinates":[37.617199999999997,55.755800000000001]},"properties":{"FID":17,"city":"Moscow","city_ascii":"Moscow","lat":55.755800000000001,"lng":37.617199999999997,"country":"Russia","iso2":"RU","iso3":"RUS","admin_name":"Moskva","capital":"primary","population":"17332000","id":"1643318494"}},{"type":"Feature","id":18,"geometry":{"type":"Point","coordinates":[-58.381700000000002,-34.603299999999997]},"properties":{"FID":18,"city":"Buenos Aires","city_ascii":"Buenos Aires","lat":-34.603299999999997,"lng":-58.381700000000002,"country":"Argentina","iso2":"AR","iso3":"ARG","admin_name":"Buenos Aires, Ciudad Autónoma de","capital":"primary","population":"16710000","id":"1032717330"}},{"type":"Feature","id":19,"geometry":{"type":"Point","coordinates":[3.3841000000000001,6.4550000000000001]},"properties":{"FID":19,"city":"Lagos","city_ascii":"Lagos","lat":6.4550000000000001,"lng":3.3841000000000001,"country":"Nigeria","iso2":"NG","iso3":"NGA","admin_name":"Lagos","capital":"minor","population":"16637000","id":"1566593751"}},{"type":"Feature","id":20,"geometry":{"type":"Point","coordinates":[28.954999999999998,41.013599999999997]},"properties":{"FID":20,"city":"Istanbul","city_ascii":"Istanbul","lat":41.013599999999997,"lng":28.954999999999998,"country":"Turkey","iso2":"TR","iso3":"TUR","admin_name":"İstanbul","capital":"admin","population":"16079000","id":"1792756324"}},{"type":"Feature","id":21,"geometry":{"type":"Point","coordinates":[67.010000000000005,24.859999999999999]},"properties":{"FID":21,"city":"Karachi","city_ascii":"Karachi","lat":24.859999999999999,"lng":67.010000000000005,"country":"Pakistan","iso2":"PK","iso3":"PAK","admin_name":"Sindh","capital":"admin","population":"15738000","id":"1586129469"}},{"type":"Feature","id":22,"geometry":{"type":"Point","coordinates":[77.591700000000003,12.978899999999999]},"properties":{"FID":22,"city":"Bangalore","city_ascii":"Bangalore","lat":12.978899999999999,"lng":77.591700000000003,"country":"India","iso2":"IN","iso3":"IND","admin_name":"Karnātaka","capital":"admin","population":"15386000","id":"1356410365"}},{"type":"Feature","id":23,"geometry":{"type":"Point","coordinates":[106.70189999999999,10.775600000000001]},"properties":{"FID":23,"city":"Ho Chi Minh City","city_ascii":"Ho Chi Minh City","lat":10.775600000000001,"lng":106.70189999999999,"country":"Vietnam","iso2":"VN","iso3":"VNM","admin_name":"Hồ Chí Minh","capital":"admin","population":"15136000","id":"1704774326"}},{"type":"Feature","id":24,"geometry":{"type":"Point","coordinates":[135.50219999999999,34.693899999999999]},"properties":{"FID":24,"city":"Ōsaka","city_ascii":"Osaka","lat":34.693899999999999,"lng":135.50219999999999,"country":"Japan","iso2":"JP","iso3":"JPN","admin_name":"Ōsaka","capital":"admin","population":"15126000","id":"1392419823"}},{"type":"Feature","id":25,"geometry":{"type":"Point","coordinates":[104.0633,30.66]},"properties":{"FID":25,"city":"Chengdu","city_ascii":"Chengdu","lat":30.66,"lng":104.0633,"country":"China","iso2":"CN","iso3":"CHN","admin_name":"Sichuan","capital":"admin","population":"14645000","id":"1156421555"}},{"type":"Feature","id":26,"geometry":{"type":"Point","coordinates":[51.3889,35.6892]},"properties":{"FID":26,"city":"Tehran","city_ascii":"Tehran","lat":35.6892,"lng":51.3889,"country":"Iran","iso2":"IR","iso3":"IRN","admin_name":"Tehrān","capital":"primary","population":"14148000","id":"1364305026"}},{"type":"Feature","id":27,"geometry":{"type":"Point","coordinates":[15.3119,-4.3219000000000003]},"properties":{"FID":27,"city":"Kinshasa","city_ascii":"Kinshasa","lat":-4.3219000000000003,"lng":15.3119,"country":"Congo (Kinshasa)","iso2":"CD","iso3":"COD","admin_name":"Kinshasa","capital":"primary","population":"12836000","id":"1180000363"}},{"type":"Feature","id":28,"geometry":{"type":"Point","coordinates":[-43.205599999999997,-22.911100000000001]},"properties":{"FID":28,"city":"Rio de Janeiro","city_ascii":"Rio de Janeiro","lat":-22.911100000000001,"lng":-43.205599999999997,"country":"Brazil","iso2":"BR","iso3":"BRA","admin_name":"Rio de Janeiro","capital":"admin","population":"12592000","id":"1076887657"}},{"type":"Feature","id":29,"geometry":{"type":"Point","coordinates":[80.275000000000006,13.0825]},"properties":{"FID":29,"city":"Chennai","city_ascii":"Chennai","lat":13.0825,"lng":80.275000000000006,"country":"India","iso2":"IN","iso3":"IND","admin_name":"Tamil Nādu","capital":"admin","population":"12395000","id":"1356374944"}},{"type":"Feature","id":30,"geometry":{"type":"Point","coordinates":[108.9422,34.261099999999999]},"properties":{"FID":30,"city":"Xi’an","city_ascii":"Xi'an","lat":34.261099999999999,"lng":108.9422,"country":"China","iso2":"CN","iso3":"CHN","admin_name":"Shaanxi","capital":"admin","population":"12328000","id":"1156244079"}},{"type":"Feature","id":31,"geometry":{"type":"Point","coordinates":[74.343599999999995,31.549700000000001]},"properties":{"FID":31,"city":"Lahore","city_ascii":"Lahore","lat":31.549700000000001,"lng":74.343599999999995,"country":"Pakistan","iso2":"PK","iso3":"PAK","admin_name":"Punjab","capital":"admin","population":"12306000","id":"1586801463"}},{"type":"Feature","id":32,"geometry":{"type":"Point","coordinates":[106.5504,29.563700000000001]},"properties":{"FID":32,"city":"Chongqing","city_ascii":"Chongqing","lat":29.563700000000001,"lng":106.5504,"country":"China","iso2":"CN","iso3":"CHN","admin_name":"Chongqing","capital":"admin","population":"12135000","id":"1156936556"}},{"type":"Feature","id":33,"geometry":{"type":"Point","coordinates":[-118.4068,34.114100000000001]},"properties":{"FID":33,"city":"Los Angeles","city_ascii":"Los Angeles","lat":34.114100000000001,"lng":-118.4068,"country":"United States","iso2":"US","iso3":"USA","admin_name":"California","capital":" ","population":"11922389","id":"1840020491"}},{"type":"Feature","id":34,"geometry":{"type":"Point","coordinates":[115.464,38.874000000000002]},"properties":{"FID":34,"city":"Baoding","city_ascii":"Baoding","lat":38.874000000000002,"lng":115.464,"country":"China","iso2":"CN","iso3":"CHN","admin_name":"Hebei","capital":"minor","population":"11544036","id":"1156256829"}},{"type":"Feature","id":35,"geometry":{"type":"Point","coordinates":[-0.1275,51.507199999999997]},"properties":{"FID":35,"city":"London","city_ascii":"London","lat":51.507199999999997,"lng":-0.1275,"country":"United Kingdom","iso2":"GB","iso3":"GBR","admin_name":"London, City of","capital":"primary","population":"11262000","id":"1826645935"}},{"type":"Feature","id":36,"geometry":{"type":"Point","coordinates":[2.3521999999999998,48.856699999999996]},"properties":{"FID":36,"city":"Paris","city_ascii":"Paris","lat":48.856699999999996,"lng":2.3521999999999998,"country":"France","iso2":"FR","iso3":"FRA","admin_name":"Île-de-France","capital":"primary","population":"11060000","id":"1250015082"}},{"type":"Feature","id":37,"geometry":{"type":"Point","coordinates":[118.35639999999999,35.1038]},"properties":{"FID":37,"city":"Linyi","city_ascii":"Linyi","lat":35.1038,"lng":118.35639999999999,"country":"China","iso2":"CN","iso3":"CHN","admin_name":"Shandong","capital":" ","population":"11018365","id":"1156086320"}},{"type":"Feature","id":38,"geometry":{"type":"Point","coordinates":[113.752,23.021000000000001]},"properties":{"FID":38,"city":"Dongguan","city_ascii":"Dongguan","lat":23.021000000000001,"lng":113.752,"country":"China","iso2":"CN","iso3":"CHN","admin_name":"Guangdong","capital":"minor","population":"10646000","id":"1156478242"}},{"type":"Feature","id":39,"geometry":{"type":"Point","coordinates":[78.474699999999999,17.361699999999999]},"properties":{"FID":39,"city":"Hyderābād","city_ascii":"Hyderabad","lat":17.361699999999999,"lng":78.474699999999999,"country":"India","iso2":"IN","iso3":"IND","admin_name":"Telangāna","capital":"admin","population":"10494000","id":"1356871768"}},{"type":"Feature","id":40,"geometry":{"type":"Point","coordinates":[117.2054,39.133600000000001]},"properties":{"FID":40,"city":"Tianjin","city_ascii":"Tianjin","lat":39.133600000000001,"lng":117.2054,"country":"China","iso2":"CN","iso3":"CHN","admin_name":"Tianjin","capital":"admin","population":"10368000","id":"1156174046"}},{"type":"Feature","id":41,"geometry":{"type":"Point","coordinates":[-77.037499999999994,-12.06]},"properties":{"FID":41,"city":"Lima","city_ascii":"Lima","lat":-12.06,"lng":-77.037499999999994,"country":"Peru","iso2":"PE","iso3":"PER","admin_name":"Lima","capital":"primary","population":"10320000","id":"1604728603"}},{"type":"Feature","id":42,"geometry":{"type":"Point","coordinates":[114.30459999999999,30.593399999999999]},"properties":{"FID":42,"city":"Wuhan","city_ascii":"Wuhan","lat":30.593399999999999,"lng":114.30459999999999,"country":"China","iso2":"CN","iso3":"CHN","admin_name":"Hubei","capital":"admin","population":"10251000","id":"1156117184"}},{"type":"Feature","id":43,"geometry":{"type":"Point","coordinates":[112.5292,32.998699999999999]},"properties":{"FID":43,"city":"Nanyang","city_ascii":"Nanyang","lat":32.998699999999999,"lng":112.5292,"country":"China","iso2":"CN","iso3":"CHN","admin_name":"Henan","capital":" ","population":"9713112","id":"1156192287"}},{"type":"Feature","id":44,"geometry":{"type":"Point","coordinates":[120.15300000000001,30.266999999999999]},"properties":{"FID":44,"city":"Hangzhou","city_ascii":"Hangzhou","lat":30.266999999999999,"lng":120.15300000000001,"country":"China","iso2":"CN","iso3":"CHN","admin_name":"Zhejiang","capital":"admin","population":"9523000","id":"1156275243"}},{"type":"Feature","id":45,"geometry":{"type":"Point","coordinates":[113.1216,23.0214]},"properties":{"FID":45,"city":"Foshan","city_ascii":"Foshan","lat":23.0214,"lng":113.1216,"country":"China","iso2":"CN","iso3":"CHN","admin_name":"Guangdong","capital":"minor","population":"9498863","id":"1156738403"}},{"type":"Feature","id":46,"geometry":{"type":"Point","coordinates":[136.90000000000001,35.183300000000003]},"properties":{"FID":46,"city":"Nagoya","city_ascii":"Nagoya","lat":35.183300000000003,"lng":136.90000000000001,"country":"Japan","iso2":"JP","iso3":"JPN","admin_name":"Aichi","capital":"admin","population":"9197000","id":"1392407472"}},{"type":"Feature","id":47,"geometry":{"type":"Point","coordinates":[117.28400000000001,34.204000000000001]},"properties":{"FID":47,"city":"Tongshan","city_ascii":"Tongshan","lat":34.204000000000001,"lng":117.28400000000001,"country":"China","iso2":"CN","iso3":"CHN","admin_name":"Jiangsu","capital":"minor","population":"9083790","id":"1156241678"}},{"type":"Feature","id":48,"geometry":{"type":"Point","coordinates":[13.234400000000001,-8.8383000000000003]},"properties":{"FID":48,"city":"Luanda","city_ascii":"Luanda","lat":-8.8383000000000003,"lng":13.234400000000001,"country":"Angola","iso2":"AO","iso3":"AGO","admin_name":"Luanda","capital":"primary","population":"9051000","id":"1024949724"}},{"type":"Feature","id":49,"geometry":{"type":"Point","coordinates":[114.6418,33.625]},"properties":{"FID":49,"city":"Zhoukou","city_ascii":"Zhoukou","lat":33.625,"lng":114.6418,"country":"China","iso2":"CN","iso3":"CHN","admin_name":"Henan","capital":"minor","population":"9026015","id":"1156272098"}},{"type":"Feature","id":50,"geometry":{"type":"Point","coordinates":[114.93300000000001,25.831]},"properties":{"FID":50,"city":"Ganzhou","city_ascii":"Ganzhou","lat":25.831,"lng":114.93300000000001,"country":"China","iso2":"CN","iso3":"CHN","admin_name":"Jiangxi","capital":"minor","population":"8970014","id":"1156832475"}},{"type":"Feature","id":51,"geometry":{"type":"Point","coordinates":[101.6953,3.1478000000000002]},"properties":{"FID":51,"city":"Kuala Lumpur","city_ascii":"Kuala Lumpur","lat":3.1478000000000002,"lng":101.6953,"country":"Malaysia","iso2":"MY","iso3":"MYS","admin_name":"Kuala Lumpur","capital":"primary","population":"8911000","id":"1458988644"}},{"type":"Feature","id":52,"geometry":{"type":"Point","coordinates":[115.4796,35.234299999999998]},"properties":{"FID":52,"city":"Heze","city_ascii":"Heze","lat":35.234299999999998,"lng":115.4796,"country":"China","iso2":"CN","iso3":"CHN","admin_name":"Shandong","capital":"minor","population":"8795939","id":"1156225008"}},{"type":"Feature","id":53,"geometry":{"type":"Point","coordinates":[118.67570000000001,24.874400000000001]},"properties":{"FID":53,"city":"Quanzhou","city_ascii":"Quanzhou","lat":24.874400000000001,"lng":118.67570000000001,"country":"China","iso2":"CN","iso3":"CHN","admin_name":"Fujian","capital":"minor","population":"8782285","id":"1156829655"}},{"type":"Feature","id":54,"geometry":{"type":"Point","coordinates":[28.0456,-26.2044]},"properties":{"FID":54,"city":"Johannesburg","city_ascii":"Johannesburg","lat":-26.2044,"lng":28.0456,"country":"South Africa","iso2":"ZA","iso3":"ZAF","admin_name":"Gauteng","capital":"admin","population":"8500000","id":"1710550792"}},{"type":"Feature","id":55,"geometry":{"type":"Point","coordinates":[-87.686599999999999,41.837499999999999]},"properties":{"FID":55,"city":"Chicago","city_ascii":"Chicago","lat":41.837499999999999,"lng":-87.686599999999999,"country":"United States","iso2":"US","iso3":"USA","admin_name":"Illinois","capital":" ","population":"8497759","id":"1840000494"}},{"type":"Feature","id":56,"geometry":{"type":"Point","coordinates":[118.77889999999999,32.0608]},"properties":{"FID":56,"city":"Nanjing","city_ascii":"Nanjing","lat":32.0608,"lng":118.77889999999999,"country":"China","iso2":"CN","iso3":"CHN","admin_name":"Jiangsu","capital":"admin","population":"8422000","id":"1156644065"}},{"type":"Feature","id":57,"geometry":{"type":"Point","coordinates":[116.58710000000001,35.415100000000002]},"properties":{"FID":57,"city":"Jining","city_ascii":"Jining","lat":35.415100000000002,"lng":116.58710000000001,"country":"China","iso2":"CN","iso3":"CHN","admin_name":"Shandong","capital":" ","population":"8357897","id":"1156504601"}},{"type":"Feature","id":58,"geometry":{"type":"Point","coordinates":[105.84999999999999,21]},"properties":{"FID":58,"city":"Hanoi","city_ascii":"Hanoi","lat":21,"lng":105.84999999999999,"country":"Vietnam","iso2":"VN","iso3":"VNM","admin_name":"Hà Nội","capital":"primary","population":"8246600","id":"1704413791"}},{"type":"Feature","id":59,"geometry":{"type":"Point","coordinates":[73.856700000000004,18.520299999999999]},"properties":{"FID":59,"city":"Pune","city_ascii":"Pune","lat":18.520299999999999,"lng":73.856700000000004,"country":"India","iso2":"IN","iso3":"IND","admin_name":"Mahārāshtra","capital":" ","population":"8231000","id":"1356081074"}},{"type":"Feature","id":60,"geometry":{"type":"Point","coordinates":[115.81399999999999,32.890000000000001]},"properties":{"FID":60,"city":"Fuyang","city_ascii":"Fuyang","lat":32.890000000000001,"lng":115.81399999999999,"country":"China","iso2":"CN","iso3":"CHN","admin_name":"Anhui","capital":" ","population":"8200264","id":"1156248008"}},{"type":"Feature","id":61,"geometry":{"type":"Point","coordinates":[72.571399999999997,23.022500000000001]},"properties":{"FID":61,"city":"Ahmedabad","city_ascii":"Ahmedabad","lat":23.022500000000001,"lng":72.571399999999997,"country":"India","iso2":"IN","iso3":"IND","admin_name":"Gujarāt","capital":"minor","population":"8009000","id":"1356304381"}},{"type":"Feature","id":62,"geometry":{"type":"Point","coordinates":[-74.072199999999995,4.7111000000000001]},"properties":{"FID":62,"city":"Bogotá","city_ascii":"Bogota","lat":4.7111000000000001,"lng":-74.072199999999995,"country":"Colombia","iso2":"CO","iso3":"COL","admin_name":"Bogotá","capital":"primary","population":"7968095","id":"1170483426"}},{"type":"Feature","id":63,"geometry":{"type":"Point","coordinates":[123.4281,41.802500000000002]},"properties":{"FID":63,"city":"Shenyang","city_ascii":"Shenyang","lat":41.802500000000002,"lng":123.4281,"country":"China","iso2":"CN","iso3":"CHN","admin_name":"Liaoning","capital":"admin","population":"7964000","id":"1156309382"}},{"type":"Feature","id":64,"geometry":{"type":"Point","coordinates":[39.280299999999997,-6.8160999999999996]},"properties":{"FID":64,"city":"Dar es Salaam","city_ascii":"Dar es Salaam","lat":-6.8160999999999996,"lng":39.280299999999997,"country":"Tanzania","iso2":"TZ","iso3":"TZA","admin_name":"Dar es Salaam","capital":"admin","population":"7962000","id":"1834843853"}},{"type":"Feature","id":65,"geometry":{"type":"Point","coordinates":[32.5,15.6]},"properties":{"FID":65,"city":"Khartoum","city_ascii":"Khartoum","lat":15.6,"lng":32.5,"country":"Sudan","iso2":"SD","iso3":"SDN","admin_name":"Khartoum","capital":"primary","population":"7869000","id":"1729268475"}},{"type":"Feature","id":66,"geometry":{"type":"Point","coordinates":[115.65600000000001,34.414999999999999]},"properties":{"FID":66,"city":"Shangqiu","city_ascii":"Shangqiu","lat":34.414999999999999,"lng":115.65600000000001,"country":"China","iso2":"CN","iso3":"CHN","admin_name":"Henan","capital":" ","population":"7816831","id":"1156805441"}},{"type":"Feature","id":67,"geometry":{"type":"Point","coordinates":[114.2,22.300000000000001]},"properties":{"FID":67,"city":"Hong Kong","city_ascii":"Hong Kong","lat":22.300000000000001,"lng":114.2,"country":"Hong Kong","iso2":"HK","iso3":"HKG","admin_name":" ","capital":"primary","population":"7450000","id":"1344982653"}},{"type":"Feature","id":68,"geometry":{"type":"Point","coordinates":[116.8387,38.304699999999997]},"properties":{"FID":68,"city":"Cangzhou","city_ascii":"Cangzhou","lat":38.304699999999997,"lng":116.8387,"country":"China","iso2":"CN","iso3":"CHN","admin_name":"Hebei","capital":"minor","population":"7300783","id":"1156698069"}},{"type":"Feature","id":69,"geometry":{"type":"Point","coordinates":[46.716700000000003,24.633299999999998]},"properties":{"FID":69,"city":"Riyadh","city_ascii":"Riyadh","lat":24.633299999999998,"lng":46.716700000000003,"country":"Saudi Arabia","iso2":"SA","iso3":"SAU","admin_name":"Ar Riyāḑ","capital":"primary","population":"7237000","id":"1682999334"}},{"type":"Feature","id":70,"geometry":{"type":"Point","coordinates":[-70.650599999999997,-33.437199999999997]},"properties":{"FID":70,"city":"Santiago","city_ascii":"Santiago","lat":-33.437199999999997,"lng":-70.650599999999997,"country":"Chile","iso2":"CL","iso3":"CHL","admin_name":"Región Metropolitana","capital":"primary","population":"7171000","id":"1152554349"}},{"type":"Feature","id":71,"geometry":{"type":"Point","coordinates":[114.5048,37.0717]},"properties":{"FID":71,"city":"Xingtai","city_ascii":"Xingtai","lat":37.0717,"lng":114.5048,"country":"China","iso2":"CN","iso3":"CHN","admin_name":"Hebei","capital":" ","population":"7111106","id":"1156294952"}},{"type":"Feature","id":72,"geometry":{"type":"Point","coordinates":[114.02200000000001,33.014000000000003]},"properties":{"FID":72,"city":"Zhumadian","city_ascii":"Zhumadian","lat":33.014000000000003,"lng":114.02200000000001,"country":"China","iso2":"CN","iso3":"CHN","admin_name":"Henan","capital":" ","population":"7008427","id":"1156184822"}},{"type":"Feature","id":73,"geometry":{"type":"Point","coordinates":[91.832499999999996,22.335000000000001]},"properties":{"FID":73,"city":"Chattogram","city_ascii":"Chattogram","lat":22.335000000000001,"lng":91.832499999999996,"country":"Bangladesh","iso2":"BD","iso3":"BGD","admin_name":"Chattogram","capital":"admin","population":"7000000","id":"1050830722"}},{"type":"Feature","id":74,"geometry":{"type":"Point","coordinates":[112.73779999999999,-7.2458]},"properties":{"FID":74,"city":"Surabaya","city_ascii":"Surabaya","lat":-7.2458,"lng":112.73779999999999,"country":"Indonesia","iso2":"ID","iso3":"IDN","admin_name":"Jawa Timur","capital":"admin","population":"6998000","id":"1360484663"}},{"type":"Feature","id":75,"geometry":{"type":"Point","coordinates":[110.3575,21.270099999999999]},"properties":{"FID":75,"city":"Zhanjiang","city_ascii":"Zhanjiang","lat":21.270099999999999,"lng":110.3575,"country":"China","iso2":"CN","iso3":"CHN","admin_name":"Guangdong","capital":"minor","population":"6981236","id":"1156502170"}},{"type":"Feature","id":76,"geometry":{"type":"Point","coordinates":[105.292,27.283999999999999]},"properties":{"FID":76,"city":"Bijie","city_ascii":"Bijie","lat":27.283999999999999,"lng":105.292,"country":"China","iso2":"CN","iso3":"CHN","admin_name":"Guizhou","capital":" ","population":"6899636","id":"1156018927"}},{"type":"Feature","id":77,"geometry":{"type":"Point","coordinates":[120.1626,33.348199999999999]},"properties":{"FID":77,"city":"Yancheng","city_ascii":"Yancheng","lat":33.348199999999999,"lng":120.1626,"country":"China","iso2":"CN","iso3":"CHN","admin_name":"Jiangsu","capital":"minor","population":"6709629","id":"1156995410"}},{"type":"Feature","id":78,"geometry":{"type":"Point","coordinates":[112.572,26.893999999999998]},"properties":{"FID":78,"city":"Hengyang","city_ascii":"Hengyang","lat":26.893999999999998,"lng":112.572,"country":"China","iso2":"CN","iso3":"CHN","admin_name":"Hunan","capital":" ","population":"6645243","id":"1156696884"}},{"type":"Feature","id":79,"geometry":{"type":"Point","coordinates":[107.03100000000001,27.722000000000001]},"properties":{"FID":79,"city":"Zunyi","city_ascii":"Zunyi","lat":27.722000000000001,"lng":107.03100000000001,"country":"China","iso2":"CN","iso3":"CHN","admin_name":"Guizhou","capital":" ","population":"6606675","id":"1156539782"}},{"type":"Feature","id":80,"geometry":{"type":"Point","coordinates":[111.4679,27.2395]},"properties":{"FID":80,"city":"Shaoyang","city_ascii":"Shaoyang","lat":27.2395,"lng":111.4679,"country":"China","iso2":"CN","iso3":"CHN","admin_name":"Hunan","capital":" ","population":"6563520","id":"1156310366"}},{"type":"Feature","id":81,"geometry":{"type":"Point","coordinates":[72.831100000000006,21.170200000000001]},"properties":{"FID":81,"city":"Sūrat","city_ascii":"Surat","lat":21.170200000000001,"lng":72.831100000000006,"country":"India","iso2":"IN","iso3":"IND","admin_name":"Gujarāt","capital":" ","population":"6538000","id":"1356758738"}},{"type":"Feature","id":82,"geometry":{"type":"Point","coordinates":[117.9431,28.455100000000002]},"properties":{"FID":82,"city":"Shangrao","city_ascii":"Shangrao","lat":28.455100000000002,"lng":117.9431,"country":"China","iso2":"CN","iso3":"CHN","admin_name":"Jiangxi","capital":"minor","population":"6435300","id":"1156405492"}},{"type":"Feature","id":83,"geometry":{"type":"Point","coordinates":[114.09099999999999,32.149000000000001]},"properties":{"FID":83,"city":"Xinyang","city_ascii":"Xinyang","lat":32.149000000000001,"lng":114.09099999999999,"country":"China","iso2":"CN","iso3":"CHN","admin_name":"Henan","capital":" ","population":"6234401","id":"1156273453"}},{"type":"Feature","id":84,"geometry":{"type":"Point","coordinates":[-3.7033,40.416899999999998]},"properties":{"FID":84,"city":"Madrid","city_ascii":"Madrid","lat":40.416899999999998,"lng":-3.7033,"country":"Spain","iso2":"ES","iso3":"ESP","admin_name":"Madrid","capital":"primary","population":"6211000","id":"1724616994"}},{"type":"Feature","id":85,"geometry":{"type":"Point","coordinates":[44.366100000000003,33.315300000000001]},"properties":{"FID":85,"city":"Baghdad","city_ascii":"Baghdad","lat":33.315300000000001,"lng":44.366100000000003,"country":"Iraq","iso2":"IQ","iso3":"IRQ","admin_name":"Baghdād","capital":"primary","population":"6183000","id":"1368596238"}},{"type":"Feature","id":86,"geometry":{"type":"Point","coordinates":[110.9255,21.662700000000001]},"properties":{"FID":86,"city":"Maoming","city_ascii":"Maoming","lat":21.662700000000001,"lng":110.9255,"country":"China","iso2":"CN","iso3":"CHN","admin_name":"Guangdong","capital":"minor","population":"6174050","id":"1156568722"}},{"type":"Feature","id":87,"geometry":{"type":"Point","coordinates":[116.37269999999999,23.550999999999998]},"properties":{"FID":87,"city":"Jieyang","city_ascii":"Jieyang","lat":23.550999999999998,"lng":116.37269999999999,"country":"China","iso2":"CN","iso3":"CHN","admin_name":"Guangdong","capital":"minor","population":"6089400","id":"1156260378"}},{"type":"Feature","id":88,"geometry":{"type":"Point","coordinates":[-80.210099999999997,25.783999999999999]},"properties":{"FID":88,"city":"Miami","city_ascii":"Miami","lat":25.783999999999999,"lng":-80.210099999999997,"country":"United States","iso2":"US","iso3":"USA","admin_name":"Florida","capital":" ","population":"6080145","id":"1840015149"}},{"type":"Feature","id":89,"geometry":{"type":"Point","coordinates":[103.8,1.3]},"properties":{"FID":89,"city":"Singapore","city_ascii":"Singapore","lat":1.3,"lng":103.8,"country":"Singapore","iso2":"SG","iso3":"SGP","admin_name":" ","capital":"primary","population":"5983000","id":"1702341327"}},{"type":"Feature","id":90,"geometry":{"type":"Point","coordinates":[-95.388499999999993,29.786000000000001]},"properties":{"FID":90,"city":"Houston","city_ascii":"Houston","lat":29.786000000000001,"lng":-95.388499999999993,"country":"United States","iso2":"US","iso3":"USA","admin_name":"Texas","capital":" ","population":"5970127","id":"1840020925"}},{"type":"Feature","id":91,"geometry":{"type":"Point","coordinates":[115.98520000000001,36.4559]},"properties":{"FID":91,"city":"Liaocheng","city_ascii":"Liaocheng","lat":36.4559,"lng":115.98520000000001,"country":"China","iso2":"CN","iso3":"CHN","admin_name":"Shandong","capital":"minor","population":"5952128","id":"1156006600"}},{"type":"Feature","id":92,"geometry":{"type":"Point","coordinates":[114.8724,30.453700000000001]},"properties":{"FID":92,"city":"Huanggang","city_ascii":"Huanggang","lat":30.453700000000001,"lng":114.8724,"country":"China","iso2":"CN","iso3":"CHN","admin_name":"Hubei","capital":"minor","population":"5882719","id":"1156200037"}},{"type":"Feature","id":93,"geometry":{"type":"Point","coordinates":[121.59999999999999,38.899999999999999]},"properties":{"FID":93,"city":"Dalian","city_ascii":"Dalian","lat":38.899999999999999,"lng":121.59999999999999,"country":"China","iso2":"CN","iso3":"CHN","admin_name":"Liaoning","capital":" ","population":"5871474","id":"1156175472"}},{"type":"Feature","id":94,"geometry":{"type":"Point","coordinates":[-96.7667,32.793500000000002]},"properties":{"FID":94,"city":"Dallas","city_ascii":"Dallas","lat":32.793500000000002,"lng":-96.7667,"country":"United States","iso2":"US","iso3":"USA","admin_name":"Texas","capital":" ","population":"5830932","id":"1840019440"}},{"type":"Feature","id":95,"geometry":{"type":"Point","coordinates":[120.3827,36.066899999999997]},"properties":{"FID":95,"city":"Qingdao","city_ascii":"Qingdao","lat":36.066899999999997,"lng":120.3827,"country":"China","iso2":"CN","iso3":"CHN","admin_name":"Shandong","capital":"minor","population":"5818255","id":"1156112588"}},{"type":"Feature","id":96,"geometry":{"type":"Point","coordinates":[110.181,22.654]},"properties":{"FID":96,"city":"Yulin","city_ascii":"Yulin","lat":22.654,"lng":110.181,"country":"China","iso2":"CN","iso3":"CHN","admin_name":"Guangxi","capital":"minor","population":"5796766","id":"1156901312"}},{"type":"Feature","id":97,"geometry":{"type":"Point","coordinates":[9.6999999999999993,4.0499999999999998]},"properties":{"FID":97,"city":"Douala","city_ascii":"Douala","lat":4.0499999999999998,"lng":9.6999999999999993,"country":"Cameroon","iso2":"CM","iso3":"CMR","admin_name":"Littoral","capital":"admin","population":"5768400","id":"1120494607"}},{"type":"Feature","id":98,"geometry":{"type":"Point","coordinates":[103.79600000000001,25.491]},"properties":{"FID":98,"city":"Qujing","city_ascii":"Qujing","lat":25.491,"lng":103.79600000000001,"country":"China","iso2":"CN","iso3":"CHN","admin_name":"Yunnan","capital":" ","population":"5765775","id":"1156747998"}},{"type":"Feature","id":99,"geometry":{"type":"Point","coordinates":[113.9268,35.303600000000003]},"properties":{"FID":99,"city":"Nangandao","city_ascii":"Nangandao","lat":35.303600000000003,"lng":113.9268,"country":"China","iso2":"CN","iso3":"CHN","admin_name":"Henan","capital":"minor","population":"5708191","id":"1156127660"}},{"type":"Feature","id":100,"geometry":{"type":"Point","coordinates":[-75.133899999999997,40.0077]},"properties":{"FID":100,"city":"Philadelphia","city_ascii":"Philadelphia","lat":40.0077,"lng":-75.133899999999997,"country":"United States","iso2":"US","iso3":"USA","admin_name":"Pennsylvania","capital":" ","population":"5683533","id":"1840000673"}},{"type":"Feature","id":101,"geometry":{"type":"Point","coordinates":[121.5064,31.2347]},"properties":{"FID":101,"city":"Pudong","city_ascii":"Pudong","lat":31.2347,"lng":121.5064,"country":"China","iso2":"CN","iso3":"CHN","admin_name":"Shanghai","capital":"minor","population":"5681512","id":"1156644508"}},{"type":"Feature","id":102,"geometry":{"type":"Point","coordinates":[-79.3733,43.741700000000002]},"properties":{"FID":102,"city":"Toronto","city_ascii":"Toronto","lat":43.741700000000002,"lng":-79.3733,"country":"Canada","iso2":"CA","iso3":"CAN","admin_name":"Ontario","capital":"admin","population":"5647656","id":"1124279679"}},{"type":"Feature","id":103,"geometry":{"type":"Point","coordinates":[113.684,34.764000000000003]},"properties":{"FID":103,"city":"Zhengzhou","city_ascii":"Zhengzhou","lat":34.764000000000003,"lng":113.684,"country":"China","iso2":"CN","iso3":"CHN","admin_name":"Henan","capital":"admin","population":"5621593","id":"1156183137"}},{"type":"Feature","id":104,"geometry":{"type":"Point","coordinates":[116.35899999999999,37.436]},"properties":{"FID":104,"city":"Dezhou","city_ascii":"Dezhou","lat":37.436,"lng":116.35899999999999,"country":"China","iso2":"CN","iso3":"CHN","admin_name":"Shandong","capital":"minor","population":"5611194","id":"1156524080"}},{"type":"Feature","id":105,"geometry":{"type":"Point","coordinates":[106.11060000000001,30.837199999999999]},"properties":{"FID":105,"city":"Nanchong","city_ascii":"Nanchong","lat":30.837199999999999,"lng":106.11060000000001,"country":"China","iso2":"CN","iso3":"CHN","admin_name":"Sichuan","capital":"minor","population":"5607565","id":"1156762337"}},{"type":"Feature","id":106,"geometry":{"type":"Point","coordinates":[117.02070000000001,36.670200000000001]},"properties":{"FID":106,"city":"Jinan","city_ascii":"Jinan","lat":36.670200000000001,"lng":117.02070000000001,"country":"China","iso2":"CN","iso3":"CHN","admin_name":"Shandong","capital":"admin","population":"5606374","id":"1156972469"}},{"type":"Feature","id":107,"geometry":{"type":"Point","coordinates":[31.2118,29.986999999999998]},"properties":{"FID":107,"city":"Giza","city_ascii":"Giza","lat":29.986999999999998,"lng":31.2118,"country":"Egypt","iso2":"EG","iso3":"EGY","admin_name":"Al Jīzah","capital":"admin","population":"5598402","id":"1818925479"}},{"type":"Feature","id":108,"geometry":{"type":"Point","coordinates":[36.8172,-1.2864]},"properties":{"FID":108,"city":"Nairobi","city_ascii":"Nairobi","lat":-1.2864,"lng":36.8172,"country":"Kenya","iso2":"KE","iso3":"KEN","admin_name":"Nairobi City","capital":"primary","population":"5545000","id":"1404000661"}},{"type":"Feature","id":109,"geometry":{"type":"Point","coordinates":[-103.3475,20.6767]},"properties":{"FID":109,"city":"Guadalajara","city_ascii":"Guadalajara","lat":20.6767,"lng":-103.3475,"country":"Mexico","iso2":"MX","iso3":"MEX","admin_name":"Jalisco","capital":"admin","population":"5525000","id":"1484950208"}},{"type":"Feature","id":110,"geometry":{"type":"Point","coordinates":[32.850000000000001,39.93]},"properties":{"FID":110,"city":"Ankara","city_ascii":"Ankara","lat":39.93,"lng":32.850000000000001,"country":"Turkey","iso2":"TR","iso3":"TUR","admin_name":"Ankara","capital":"primary","population":"5503985","id":"1792572891"}},{"type":"Feature","id":111,"geometry":{"type":"Point","coordinates":[117.087,36.201999999999998]},"properties":{"FID":111,"city":"Tai’an","city_ascii":"Tai'an","lat":36.201999999999998,"lng":117.087,"country":"China","iso2":"CN","iso3":"CHN","admin_name":"Shandong","capital":" ","population":"5472217","id":"1156095188"}},{"type":"Feature","id":112,"geometry":{"type":"Point","coordinates":[116.6835,39.5383]},"properties":{"FID":112,"city":"Langfang","city_ascii":"Langfang","lat":39.5383,"lng":116.6835,"country":"China","iso2":"CN","iso3":"CHN","admin_name":"Hebei","capital":"minor","population":"5464087","id":"1156109017"}},{"type":"Feature","id":113,"geometry":{"type":"Point","coordinates":[107.4678,31.209299999999999]},"properties":{"FID":113,"city":"Dazhou","city_ascii":"Dazhou","lat":31.209299999999999,"lng":107.4678,"country":"China","iso2":"CN","iso3":"CHN","admin_name":"Sichuan","capital":"minor","population":"5385422","id":"1156834076"}},{"type":"Feature","id":114,"geometry":{"type":"Point","coordinates":[30.308599999999998,59.9375]},"properties":{"FID":114,"city":"Saint Petersburg","city_ascii":"Saint Petersburg","lat":59.9375,"lng":30.308599999999998,"country":"Russia","iso2":"RU","iso3":"RUS","admin_name":"Sankt-Peterburg","capital":"admin","population":"5384342","id":"1643616350"}},{"type":"Feature","id":115,"geometry":{"type":"Point","coordinates":[-100.3,25.666699999999999]},"properties":{"FID":115,"city":"Monterrey","city_ascii":"Monterrey","lat":25.666699999999999,"lng":-100.3,"country":"Mexico","iso2":"MX","iso3":"MEX","admin_name":"Nuevo León","capital":"admin","population":"5341171","id":"1484559591"}},{"type":"Feature","id":116,"geometry":{"type":"Point","coordinates":[-43.933300000000003,-19.916699999999999]},"properties":{"FID":116,"city":"Belo Horizonte","city_ascii":"Belo Horizonte","lat":-19.916699999999999,"lng":-43.933300000000003,"country":"Brazil","iso2":"BR","iso3":"BRA","admin_name":"Minas Gerais","capital":"admin","population":"5328000","id":"1076967355"}},{"type":"Feature","id":117,"geometry":{"type":"Point","coordinates":[116.9683,33.633299999999998]},"properties":{"FID":117,"city":"Suzhou","city_ascii":"Suzhou","lat":33.633299999999998,"lng":116.9683,"country":"China","iso2":"CN","iso3":"CHN","admin_name":"Anhui","capital":" ","population":"5324476","id":"1156871297"}},{"type":"Feature","id":118,"geometry":{"type":"Point","coordinates":[111.613,26.420000000000002]},"properties":{"FID":118,"city":"Yongzhou","city_ascii":"Yongzhou","lat":26.420000000000002,"lng":111.613,"country":"China","iso2":"CN","iso3":"CHN","admin_name":"Hunan","capital":" ","population":"5289824","id":"1156694479"}},{"type":"Feature","id":119,"geometry":{"type":"Point","coordinates":[111.699,29.030999999999999]},"properties":{"FID":119,"city":"Changde","city_ascii":"Changde","lat":29.030999999999999,"lng":111.699,"country":"China","iso2":"CN","iso3":"CHN","admin_name":"Hunan","capital":"minor","population":"5279102","id":"1156449091"}},{"type":"Feature","id":120,"geometry":{"type":"Point","coordinates":[112.122,32.009999999999998]},"properties":{"FID":120,"city":"Xiangyang","city_ascii":"Xiangyang","lat":32.009999999999998,"lng":112.122,"country":"China","iso2":"CN","iso3":"CHN","admin_name":"Hubei","capital":"minor","population":"5260951","id":"1156107325"}},{"type":"Feature","id":121,"geometry":{"type":"Point","coordinates":[96.159999999999997,16.795000000000002]},"properties":{"FID":121,"city":"Rangoon","city_ascii":"Rangoon","lat":16.795000000000002,"lng":96.159999999999997,"country":"Burma","iso2":"MM","iso3":"MMR","admin_name":"Yangon","capital":"primary","population":"5209541","id":"1104616656"}},{"type":"Feature","id":122,"geometry":{"type":"Point","coordinates":[-84.421999999999997,33.762799999999999]},"properties":{"FID":122,"city":"Atlanta","city_ascii":"Atlanta","lat":33.762799999999999,"lng":-84.421999999999997,"country":"United States","iso2":"US","iso3":"USA","admin_name":"Georgia","capital":"admin","population":"5180179","id":"1840013660"}},{"type":"Feature","id":123,"geometry":{"type":"Point","coordinates":[-77.016300000000001,38.904699999999998]},"properties":{"FID":123,"city":"Washington","city_ascii":"Washington","lat":38.904699999999998,"lng":-77.016300000000001,"country":"United States","iso2":"US","iso3":"USA","admin_name":"District of Columbia","capital":"primary","population":"5116378","id":"1840006060"}},{"type":"Feature","id":124,"geometry":{"type":"Point","coordinates":[103.717,27.338000000000001]},"properties":{"FID":124,"city":"Zhaotong","city_ascii":"Zhaotong","lat":27.338000000000001,"lng":103.717,"country":"China","iso2":"CN","iso3":"CHN","admin_name":"Yunnan","capital":" ","population":"5092611","id":"1156924687"}},{"type":"Feature","id":125,"geometry":{"type":"Point","coordinates":[117.64700000000001,24.513000000000002]},"properties":{"FID":125,"city":"Zhangzhou","city_ascii":"Zhangzhou","lat":24.513000000000002,"lng":117.64700000000001,"country":"China","iso2":"CN","iso3":"CHN","admin_name":"Fujian","capital":"minor","population":"5054328","id":"1156241637"}},{"type":"Feature","id":126,"geometry":{"type":"Point","coordinates":[144.9631,-37.8142]},"properties":{"FID":126,"city":"Melbourne","city_ascii":"Melbourne","lat":-37.8142,"lng":144.9631,"country":"Australia","iso2":"AU","iso3":"AUS","admin_name":"Victoria","capital":"admin","population":"5031195","id":"1036533631"}},{"type":"Feature","id":127,"geometry":{"type":"Point","coordinates":[114.417,27.815999999999999]},"properties":{"FID":127,"city":"Yichun","city_ascii":"Yichun","lat":27.815999999999999,"lng":114.417,"country":"China","iso2":"CN","iso3":"CHN","admin_name":"Jiangxi","capital":"minor","population":"5007702","id":"1156229590"}},{"type":"Feature","id":128,"geometry":{"type":"Point","coordinates":[115.77419999999999,33.8626]},"properties":{"FID":128,"city":"Bozhou","city_ascii":"Bozhou","lat":33.8626,"lng":115.77419999999999,"country":"China","iso2":"CN","iso3":"CHN","admin_name":"Anhui","capital":" ","population":"4996844","id":"1156356860"}},{"type":"Feature","id":129,"geometry":{"type":"Point","coordinates":[118.2831,33.933100000000003]},"properties":{"FID":129,"city":"Suqian","city_ascii":"Suqian","lat":33.933100000000003,"lng":118.2831,"country":"China","iso2":"CN","iso3":"CHN","admin_name":"Jiangsu","capital":" ","population":"4986192","id":"1156212349"}},{"type":"Feature","id":130,"geometry":{"type":"Point","coordinates":[-4.0332999999999997,5.3167]},"properties":{"FID":130,"city":"Abidjan","city_ascii":"Abidjan","lat":5.3167,"lng":-4.0332999999999997,"country":"Côte d’Ivoire","iso2":"CI","iso3":"CIV","admin_name":"Abidjan","capital":"primary","population":"4980000","id":"1384207980"}},{"type":"Feature","id":131,"geometry":{"type":"Point","coordinates":[114.96680000000001,27.091200000000001]},"properties":{"FID":131,"city":"Ji’an","city_ascii":"Ji'an","lat":27.091200000000001,"lng":114.96680000000001,"country":"China","iso2":"CN","iso3":"CHN","admin_name":"Jiangxi","capital":"minor","population":"4956600","id":"1156278215"}},{"type":"Feature","id":132,"geometry":{"type":"Point","coordinates":[110.29600000000001,25.274999999999999]},"properties":{"FID":132,"city":"Guilin","city_ascii":"Guilin","lat":25.274999999999999,"lng":110.29600000000001,"country":"China","iso2":"CN","iso3":"CHN","admin_name":"Guangxi","capital":"minor","population":"4931137","id":"1156235364"}},{"type":"Feature","id":133,"geometry":{"type":"Point","coordinates":[113.29989999999999,33.734999999999999]},"properties":{"FID":133,"city":"Pingdingshan","city_ascii":"Pingdingshan","lat":33.734999999999999,"lng":113.29989999999999,"country":"China","iso2":"CN","iso3":"CHN","admin_name":"Henan","capital":" ","population":"4904701","id":"1156735124"}},{"type":"Feature","id":134,"geometry":{"type":"Point","coordinates":[13.404999999999999,52.520000000000003]},"properties":{"FID":134,"city":"Berlin","city_ascii":"Berlin","lat":52.520000000000003,"lng":13.404999999999999,"country":"Germany","iso2":"DE","iso3":"DEU","admin_name":"Berlin","capital":"primary","population":"4890363","id":"1276451290"}},{"type":"Feature","id":135,"geometry":{"type":"Point","coordinates":[29.892499999999998,31.197500000000002]},"properties":{"FID":135,"city":"Alexandria","city_ascii":"Alexandria","lat":31.197500000000002,"lng":29.892499999999998,"country":"Egypt","iso2":"EG","iso3":"EGY","admin_name":"Al Iskandarīyah","capital":"admin","population":"4870000","id":"1818695837"}},{"type":"Feature","id":136,"geometry":{"type":"Point","coordinates":[104.679,31.468]},"properties":{"FID":136,"city":"Mianyang","city_ascii":"Mianyang","lat":31.468,"lng":104.679,"country":"China","iso2":"CN","iso3":"CHN","admin_name":"Sichuan","capital":"minor","population":"4868243","id":"1156417758"}},{"type":"Feature","id":137,"geometry":{"type":"Point","coordinates":[151.21000000000001,-33.867800000000003]},"properties":{"FID":137,"city":"Sydney","city_ascii":"Sydney","lat":-33.867800000000003,"lng":151.21000000000001,"country":"Australia","iso2":"AU","iso3":"AUS","admin_name":"New South Wales","capital":"admin","population":"4840600","id":"1036074917"}},{"type":"Feature","id":138,"geometry":{"type":"Point","coordinates":[114.345,34.795000000000002]},"properties":{"FID":138,"city":"Huanglongsi","city_ascii":"Huanglongsi","lat":34.795000000000002,"lng":114.345,"country":"China","iso2":"CN","iso3":"CHN","admin_name":"Henan","capital":" ","population":"4824016","id":"1156198356"}},{"type":"Feature","id":139,"geometry":{"type":"Point","coordinates":[2.1768999999999998,41.382800000000003]},"properties":{"FID":139,"city":"Barcelona","city_ascii":"Barcelona","lat":41.382800000000003,"lng":2.1768999999999998,"country":"Spain","iso2":"ES","iso3":"ESP","admin_name":"Catalonia","capital":"admin","population":"4800000","id":"1724594040"}},{"type":"Feature","id":140,"geometry":{"type":"Point","coordinates":[111.00700000000001,35.026699999999998]},"properties":{"FID":140,"city":"Yuncheng","city_ascii":"Yuncheng","lat":35.026699999999998,"lng":111.00700000000001,"country":"China","iso2":"CN","iso3":"CHN","admin_name":"Shanxi","capital":" ","population":"4774508","id":"1156705644"}},{"type":"Feature","id":141,"geometry":{"type":"Point","coordinates":[18.4239,-33.9253]},"properties":{"FID":141,"city":"Cape Town","city_ascii":"Cape Town","lat":-33.9253,"lng":18.4239,"country":"South Africa","iso2":"ZA","iso3":"ZAF","admin_name":"Western Cape","capital":"primary","population":"4770313","id":"1710680650"}},{"type":"Feature","id":142,"geometry":{"type":"Point","coordinates":[112.93899999999999,28.228000000000002]},"properties":{"FID":142,"city":"Changsha","city_ascii":"Changsha","lat":28.228000000000002,"lng":112.93899999999999,"country":"China","iso2":"CN","iso3":"CHN","admin_name":"Hunan","capital":"admin","population":"4766296","id":"1156961497"}},{"type":"Feature","id":143,"geometry":{"type":"Point","coordinates":[39.172800000000002,21.543299999999999]},"properties":{"FID":143,"city":"Jeddah","city_ascii":"Jeddah","lat":21.543299999999999,"lng":39.172800000000002,"country":"Saudi Arabia","iso2":"SA","iso3":"SAU","admin_name":"Makkah al Mukarramah","capital":" ","population":"4697000","id":"1682926944"}},{"type":"Feature","id":144,"geometry":{"type":"Point","coordinates":[109.471,34.520600000000002]},"properties":{"FID":144,"city":"Weinan","city_ascii":"Weinan","lat":34.520600000000002,"lng":109.471,"country":"China","iso2":"CN","iso3":"CHN","admin_name":"Shaanxi","capital":"minor","population":"4688744","id":"1156903687"}},{"type":"Feature","id":145,"geometry":{"type":"Point","coordinates":[113.01600000000001,25.77]},"properties":{"FID":145,"city":"Chenzhou","city_ascii":"Chenzhou","lat":25.77,"lng":113.01600000000001,"country":"China","iso2":"CN","iso3":"CHN","admin_name":"Hunan","capital":"minor","population":"4667134","id":"1156291915"}},{"type":"Feature","id":146,"geometry":{"type":"Point","coordinates":[113.08150000000001,22.578900000000001]},"properties":{"FID":146,"city":"Jiangmen","city_ascii":"Jiangmen","lat":22.578900000000001,"lng":113.08150000000001,"country":"China","iso2":"CN","iso3":"CHN","admin_name":"Guangdong","capital":"minor","population":"4630300","id":"1156105613"}},{"type":"Feature","id":147,"geometry":{"type":"Point","coordinates":[115.95399999999999,29.661000000000001]},"properties":{"FID":147,"city":"Jiujiang","city_ascii":"Jiujiang","lat":29.661000000000001,"lng":115.95399999999999,"country":"China","iso2":"CN","iso3":"CHN","admin_name":"Jiangxi","capital":"minor","population":"4600276","id":"1156206041"}},{"type":"Feature","id":148,"geometry":{"type":"Point","coordinates":[119.2214,34.596600000000002]},"properties":{"FID":148,"city":"Xinpu","city_ascii":"Xinpu","lat":34.596600000000002,"lng":119.2214,"country":"China","iso2":"CN","iso3":"CHN","admin_name":"Jiangsu","capital":"minor","population":"4599360","id":"1156035381"}},{"type":"Feature","id":149,"geometry":{"type":"Point","coordinates":[104.643,28.751999999999999]},"properties":{"FID":149,"city":"Yibin","city_ascii":"Yibin","lat":28.751999999999999,"lng":104.643,"country":"China","iso2":"CN","iso3":"CHN","admin_name":"Sichuan","capital":"minor","population":"4588804","id":"1156107603"}},{"type":"Feature","id":150,"geometry":{"type":"Point","coordinates":[110.0016,27.569800000000001]},"properties":{"FID":150,"city":"Huaihua","city_ascii":"Huaihua","lat":27.569800000000001,"lng":110.0016,"country":"China","iso2":"CN","iso3":"CHN","admin_name":"Hunan","capital":" ","population":"4587594","id":"1156353465"}},{"type":"Feature","id":151,"geometry":{"type":"Point","coordinates":[119.4363,32.391199999999998]},"properties":{"FID":151,"city":"Yangzhou","city_ascii":"Yangzhou","lat":32.391199999999998,"lng":119.4363,"country":"China","iso2":"CN","iso3":"CHN","admin_name":"Jiangsu","capital":" ","population":"4559797","id":"1156818601"}},{"type":"Feature","id":152,"geometry":{"type":"Point","coordinates":[119.9229,32.456699999999998]},"properties":{"FID":152,"city":"Taizhou","city_ascii":"Taizhou","lat":32.456699999999998,"lng":119.9229,"country":"China","iso2":"CN","iso3":"CHN","admin_name":"Jiangsu","capital":"minor","population":"4512762","id":"1156119229"}},{"type":"Feature","id":153,"geometry":{"type":"Point","coordinates":[102.7094,25.046399999999998]},"properties":{"FID":153,"city":"Kunming","city_ascii":"Kunming","lat":25.046399999999998,"lng":102.7094,"country":"China","iso2":"CN","iso3":"CHN","admin_name":"Yunnan","capital":"admin","population":"4422686","id":"1156477539"}},{"type":"Feature","id":154,"geometry":{"type":"Point","coordinates":[112.35599999999999,28.5549]},"properties":{"FID":154,"city":"Yiyang","city_ascii":"Yiyang","lat":28.5549,"lng":112.35599999999999,"country":"China","iso2":"CN","iso3":"CHN","admin_name":"Hunan","capital":" ","population":"4413800","id":"1156218615"}},{"type":"Feature","id":155,"geometry":{"type":"Point","coordinates":[125.32599999999999,43.896999999999998]},"properties":{"FID":155,"city":"Changchun","city_ascii":"Changchun","lat":43.896999999999998,"lng":125.32599999999999,"country":"China","iso2":"CN","iso3":"CHN","admin_name":"Jilin","capital":"admin","population":"4408154","id":"1156078103"}},{"type":"Feature","id":156,"geometry":{"type":"Point","coordinates":[116.52,31.736000000000001]},"properties":{"FID":156,"city":"Lu’an","city_ascii":"Lu'an","lat":31.736000000000001,"lng":116.52,"country":"China","iso2":"CN","iso3":"CHN","admin_name":"Anhui","capital":"minor","population":"4393699","id":"1156499624"}},{"type":"Feature","id":157,"geometry":{"type":"Point","coordinates":[113.8201,34.0244]},"properties":{"FID":157,"city":"Jiangguanchi","city_ascii":"Jiangguanchi","lat":34.0244,"lng":113.8201,"country":"China","iso2":"CN","iso3":"CHN","admin_name":"Henan","capital":"minor","population":"4379998","id":"1156235735"}},{"type":"Feature","id":158,"geometry":{"type":"Point","coordinates":[116.122,24.289000000000001]},"properties":{"FID":158,"city":"Meizhou","city_ascii":"Meizhou","lat":24.289000000000001,"lng":116.122,"country":"China","iso2":"CN","iso3":"CHN","admin_name":"Guangdong","capital":"minor","population":"4378800","id":"1156361028"}},{"type":"Feature","id":159,"geometry":{"type":"Point","coordinates":[87.612499999999997,43.822499999999998]},"properties":{"FID":159,"city":"Ürümqi","city_ascii":"Urumqi","lat":43.822499999999998,"lng":87.612499999999997,"country":"China","iso2":"CN","iso3":"CHN","admin_name":"Xinjiang","capital":"admin","population":"4335017","id":"1156051276"}},{"type":"Feature","id":160,"geometry":{"type":"Point","coordinates":[120.6194,31.300000000000001]},"properties":{"FID":160,"city":"Suzhou","city_ascii":"Suzhou","lat":31.300000000000001,"lng":120.6194,"country":"China","iso2":"CN","iso3":"CHN","admin_name":"Jiangsu","capital":"minor","population":"4330000","id":"1156029196"}},{"type":"Feature","id":161,"geometry":{"type":"Point","coordinates":[-71.0852,42.318800000000003]},"properties":{"FID":161,"city":"Boston","city_ascii":"Boston","lat":42.318800000000003,"lng":-71.0852,"country":"United States","iso2":"US","iso3":"USA","admin_name":"Massachusetts","capital":"admin","population":"4328315","id":"1840000455"}},{"type":"Feature","id":162,"geometry":{"type":"Point","coordinates":[27.140000000000001,38.420000000000002]},"properties":{"FID":162,"city":"İzmir","city_ascii":"Izmir","lat":38.420000000000002,"lng":27.140000000000001,"country":"Turkey","iso2":"TR","iso3":"TUR","admin_name":"İzmir","capital":"admin","population":"4320519","id":"1792725579"}},{"type":"Feature","id":163,"geometry":{"type":"Point","coordinates":[109.599,23.111999999999998]},"properties":{"FID":163,"city":"Guigang","city_ascii":"Guigang","lat":23.111999999999998,"lng":109.599,"country":"China","iso2":"CN","iso3":"CHN","admin_name":"Guangxi","capital":"minor","population":"4316262","id":"1156895251"}},{"type":"Feature","id":164,"geometry":{"type":"Point","coordinates":[116.682,23.353999999999999]},"properties":{"FID":164,"city":"Shantou","city_ascii":"Shantou","lat":23.353999999999999,"lng":116.682,"country":"China","iso2":"CN","iso3":"CHN","admin_name":"Guangdong","capital":"minor","population":"4312192","id":"1156457499"}},{"type":"Feature","id":165,"geometry":{"type":"Point","coordinates":[69.178299999999993,34.525300000000001]},"properties":{"FID":165,"city":"Kabul","city_ascii":"Kabul","lat":34.525300000000001,"lng":69.178299999999993,"country":"Afghanistan","iso2":"AF","iso3":"AFG","admin_name":"Kābul","capital":"primary","population":"4273156","id":"1004993580"}},{"type":"Feature","id":166,"geometry":{"type":"Point","coordinates":[113.95699999999999,30.917999999999999]},"properties":{"FID":166,"city":"Xiaoganzhan","city_ascii":"Xiaoganzhan","lat":30.917999999999999,"lng":113.95699999999999,"country":"China","iso2":"CN","iso3":"CHN","admin_name":"Hubei","capital":" ","population":"4270371","id":"1156002290"}},{"type":"Feature","id":167,"geometry":{"type":"Point","coordinates":[-8.0028000000000006,12.639200000000001]},"properties":{"FID":167,"city":"Bamako","city_ascii":"Bamako","lat":12.639200000000001,"lng":-8.0028000000000006,"country":"Mali","iso2":"ML","iso3":"MLI","admin_name":"Bamako","capital":"primary","population":"4227569","id":"1466965925"}},{"type":"Feature","id":168,"geometry":{"type":"Point","coordinates":[105.44199999999999,28.870999999999999]},"properties":{"FID":168,"city":"Luzhou","city_ascii":"Luzhou","lat":28.870999999999999,"lng":105.44199999999999,"country":"China","iso2":"CN","iso3":"CHN","admin_name":"Sichuan","capital":"minor","population":"4218427","id":"1156582079"}},{"type":"Feature","id":169,"geometry":{"type":"Point","coordinates":[117.2273,31.820599999999999]},"properties":{"FID":169,"city":"Hefei","city_ascii":"Hefei","lat":31.820599999999999,"lng":117.2273,"country":"China","iso2":"CN","iso3":"CHN","admin_name":"Anhui","capital":"admin","population":"4216940","id":"1156332710"}},{"type":"Feature","id":170,"geometry":{"type":"Point","coordinates":[115.669,37.738999999999997]},"properties":{"FID":170,"city":"Hengshui","city_ascii":"Hengshui","lat":37.738999999999997,"lng":115.669,"country":"China","iso2":"CN","iso3":"CHN","admin_name":"Hebei","capital":"minor","population":"4212933","id":"1156803028"}},{"type":"Feature","id":171,"geometry":{"type":"Point","coordinates":[-38.527500000000003,-3.7275]},"properties":{"FID":171,"city":"Fortaleza","city_ascii":"Fortaleza","lat":-3.7275,"lng":-38.527500000000003,"country":"Brazil","iso2":"BR","iso3":"BRA","admin_name":"Ceará","capital":"admin","population":"4167996","id":"1076567885"}},{"type":"Feature","id":172,"geometry":{"type":"Point","coordinates":[117.1153,30.5318]},"properties":{"FID":172,"city":"Anqing","city_ascii":"Anqing","lat":30.5318,"lng":117.1153,"country":"China","iso2":"CN","iso3":"CHN","admin_name":"Anhui","capital":"minor","population":"4165284","id":"1156238875"}},{"type":"Feature","id":173,"geometry":{"type":"Point","coordinates":[109.4281,24.3264]},"properties":{"FID":173,"city":"Liuzhou","city_ascii":"Liuzhou","lat":24.3264,"lng":109.4281,"country":"China","iso2":"CN","iso3":"CHN","admin_name":"Guangxi","capital":"minor","population":"4157934","id":"1156360785"}},{"type":"Feature","id":174,"geometry":{"type":"Point","coordinates":[114.886,40.768999999999998]},"properties":{"FID":174,"city":"Zhangjiakou","city_ascii":"Zhangjiakou","lat":40.768999999999998,"lng":114.886,"country":"China","iso2":"CN","iso3":"CHN","admin_name":"Hebei","capital":"minor","population":"4118908","id":"1156800221"}},{"type":"Feature","id":175,"geometry":{"type":"Point","coordinates":[112.4667,23.050000000000001]},"properties":{"FID":175,"city":"Zhaoqing","city_ascii":"Zhaoqing","lat":23.050000000000001,"lng":112.4667,"country":"China","iso2":"CN","iso3":"CHN","admin_name":"Guangdong","capital":"minor","population":"4113594","id":"1156170144"}},{"type":"Feature","id":176,"geometry":{"type":"Point","coordinates":[114.51000000000001,38.042499999999997]},"properties":{"FID":176,"city":"Shijiazhuang","city_ascii":"Shijiazhuang","lat":38.042499999999997,"lng":114.51000000000001,"country":"China","iso2":"CN","iso3":"CHN","admin_name":"Hebei","capital":"admin","population":"4098243","id":"1156217541"}},{"type":"Feature","id":177,"geometry":{"type":"Point","coordinates":[121.6245,29.860299999999999]},"properties":{"FID":177,"city":"Ningbo","city_ascii":"Ningbo","lat":29.860299999999999,"lng":121.6245,"country":"China","iso2":"CN","iso3":"CHN","admin_name":"Zhejiang","capital":"minor","population":"4087523","id":"1156170787"}},{"type":"Feature","id":178,"geometry":{"type":"Point","coordinates":[123.9182,47.354900000000001]},"properties":{"FID":178,"city":"Qiqihar","city_ascii":"Qiqihar","lat":47.354900000000001,"lng":123.9182,"country":"China","iso2":"CN","iso3":"CHN","admin_name":"Heilongjiang","capital":"minor","population":"4067489","id":"1156775905"}},{"type":"Feature","id":179,"geometry":{"type":"Point","coordinates":[-112.08920000000001,33.572200000000002]},"properties":{"FID":179,"city":"Phoenix","city_ascii":"Phoenix","lat":33.572200000000002,"lng":-112.08920000000001,"country":"United States","iso2":"US","iso3":"USA","admin_name":"Arizona","capital":"admin","population":"4064275","id":"1840020568"}},{"type":"Feature","id":180,"geometry":{"type":"Point","coordinates":[116.358,27.949000000000002]},"properties":{"FID":180,"city":"Fuzhou","city_ascii":"Fuzhou","lat":27.949000000000002,"lng":116.358,"country":"China","iso2":"CN","iso3":"CHN","admin_name":"Jiangxi","capital":" ","population":"4047200","id":"1156915325"}},{"type":"Feature","id":181,"geometry":{"type":"Point","coordinates":[118.88800000000001,42.256999999999998]},"properties":{"FID":181,"city":"Chifeng","city_ascii":"Chifeng","lat":42.256999999999998,"lng":118.88800000000001,"country":"China","iso2":"CN","iso3":"CHN","admin_name":"Inner Mongolia","capital":"minor","population":"4035967","id":"1156277458"}},{"type":"Feature","id":182,"geometry":{"type":"Point","coordinates":[111.28700000000001,30.692]},"properties":{"FID":182,"city":"Xiaoxita","city_ascii":"Xiaoxita","lat":30.692,"lng":111.28700000000001,"country":"China","iso2":"CN","iso3":"CHN","admin_name":"Hubei","capital":"minor","population":"4017607","id":"1156764447"}},{"type":"Feature","id":183,"geometry":{"type":"Point","coordinates":[35.9328,31.9497]},"properties":{"FID":183,"city":"Amman","city_ascii":"Amman","lat":31.9497,"lng":35.9328,"country":"Jordan","iso2":"JO","iso3":"JOR","admin_name":"Al ‘Āşimah","capital":"primary","population":"4007526","id":"1400522593"}},{"type":"Feature","id":184,"geometry":{"type":"Point","coordinates":[118.333,32.256]},"properties":{"FID":184,"city":"Chuzhou","city_ascii":"Chuzhou","lat":32.256,"lng":118.333,"country":"China","iso2":"CN","iso3":"CHN","admin_name":"Anhui","capital":" ","population":"3987054","id":"1156036420"}},{"type":"Feature","id":185,"geometry":{"type":"Point","coordinates":[111.51900000000001,36.088000000000001]},"properties":{"FID":185,"city":"Linfen","city_ascii":"Linfen","lat":36.088000000000001,"lng":111.51900000000001,"country":"China","iso2":"CN","iso3":"CHN","admin_name":"Shanxi","capital":" ","population":"3976481","id":"1156416074"}},{"type":"Feature","id":186,"geometry":{"type":"Point","coordinates":[113.056,23.681999999999999]},"properties":{"FID":186,"city":"Qingyuan","city_ascii":"Qingyuan","lat":23.681999999999999,"lng":113.056,"country":"China","iso2":"CN","iso3":"CHN","admin_name":"Guangdong","capital":"minor","population":"3969473","id":"1156135890"}},{"type":"Feature","id":187,"geometry":{"type":"Point","coordinates":[108.7088,34.329900000000002]},"properties":{"FID":187,"city":"Xianyang","city_ascii":"Xianyang","lat":34.329900000000002,"lng":108.7088,"country":"China","iso2":"CN","iso3":"CHN","admin_name":"Shaanxi","capital":"minor","population":"3959842","id":"1156120117"}},{"type":"Feature","id":188,"geometry":{"type":"Point","coordinates":[111.9944,27.6998]},"properties":{"FID":188,"city":"Loudi","city_ascii":"Loudi","lat":27.6998,"lng":111.9944,"country":"China","iso2":"CN","iso3":"CHN","admin_name":"Hunan","capital":" ","population":"3931800","id":"1156010654"}},{"type":"Feature","id":189,"geometry":{"type":"Point","coordinates":[117.971,37.383000000000003]},"properties":{"FID":189,"city":"Binzhou","city_ascii":"Binzhou","lat":37.383000000000003,"lng":117.971,"country":"China","iso2":"CN","iso3":"CHN","admin_name":"Shandong","capital":" ","population":"3928568","id":"1156564962"}},{"type":"Feature","id":190,"geometry":{"type":"Point","coordinates":[113.133,27.829000000000001]},"properties":{"FID":190,"city":"Zhuzhou","city_ascii":"Zhuzhou","lat":27.829000000000001,"lng":113.133,"country":"China","iso2":"CN","iso3":"CHN","admin_name":"Hunan","capital":"minor","population":"3902738","id":"1156041962"}},{"type":"Feature","id":191,"geometry":{"type":"Point","coordinates":[112.5497,37.870399999999997]},"properties":{"FID":191,"city":"Taiyuan","city_ascii":"Taiyuan","lat":37.870399999999997,"lng":112.5497,"country":"China","iso2":"CN","iso3":"CHN","admin_name":"Shanxi","capital":"admin","population":"3875053","id":"1156632014"}},{"type":"Feature","id":192,"geometry":{"type":"Point","coordinates":[108.3275,22.816700000000001]},"properties":{"FID":192,"city":"Nanning","city_ascii":"Nanning","lat":22.816700000000001,"lng":108.3275,"country":"China","iso2":"CN","iso3":"CHN","admin_name":"Guangxi","capital":"admin","population":"3837978","id":"1156605439"}},{"type":"Feature","id":193,"geometry":{"type":"Point","coordinates":[126.6409,45.757599999999996]},"properties":{"FID":193,"city":"Harbin","city_ascii":"Harbin","lat":45.757599999999996,"lng":126.6409,"country":"China","iso2":"CN","iso3":"CHN","admin_name":"Heilongjiang","capital":"admin","population":"3830000","id":"1156241528"}},{"type":"Feature","id":194,"geometry":{"type":"Point","coordinates":[7.4832999999999998,9.0667000000000009]},"properties":{"FID":194,"city":"Abuja","city_ascii":"Abuja","lat":9.0667000000000009,"lng":7.4832999999999998,"country":"Nigeria","iso2":"NG","iso3":"NGA","admin_name":"Federal Capital Territory","capital":"primary","population":"3770000","id":"1566342270"}},{"type":"Feature","id":195,"geometry":{"type":"Point","coordinates":[139.63810000000001,35.444200000000002]},"properties":{"FID":195,"city":"Yokohama","city_ascii":"Yokohama","lat":35.444200000000002,"lng":139.63810000000001,"country":"Japan","iso2":"JP","iso3":"JPN","admin_name":"Kanagawa","capital":"admin","population":"3757630","id":"1392118339"}},{"type":"Feature","id":196,"geometry":{"type":"Point","coordinates":[126.96899999999999,46.654000000000003]},"properties":{"FID":196,"city":"Suihua","city_ascii":"Suihua","lat":46.654000000000003,"lng":126.96899999999999,"country":"China","iso2":"CN","iso3":"CHN","admin_name":"Heilongjiang","capital":"minor","population":"3756167","id":"1156235493"}},{"type":"Feature","id":197,"geometry":{"type":"Point","coordinates":[117.32380000000001,34.810899999999997]},"properties":{"FID":197,"city":"Zaozhuang","city_ascii":"Zaozhuang","lat":34.810899999999997,"lng":117.32380000000001,"country":"China","iso2":"CN","iso3":"CHN","admin_name":"Shandong","capital":" ","population":"3729140","id":"1156796454"}},{"type":"Feature","id":198,"geometry":{"type":"Point","coordinates":[-83.102400000000003,42.383400000000002]},"properties":{"FID":198,"city":"Detroit","city_ascii":"Detroit","lat":42.383400000000002,"lng":-83.102400000000003,"country":"United States","iso2":"US","iso3":"USA","admin_name":"Michigan","capital":" ","population":"3725908","id":"1840003971"}},{"type":"Feature","id":199,"geometry":{"type":"Point","coordinates":[118.0889,24.479600000000001]},"properties":{"FID":199,"city":"Xiamen","city_ascii":"Xiamen","lat":24.479600000000001,"lng":118.0889,"country":"China","iso2":"CN","iso3":"CHN","admin_name":"Fujian","capital":"minor","population":"3707090","id":"1156212809"}},{"type":"Feature","id":200,"geometry":{"type":"Point","coordinates":[105.05800000000001,29.580200000000001]},"properties":{"FID":200,"city":"Neijiang","city_ascii":"Neijiang","lat":29.580200000000001,"lng":105.05800000000001,"country":"China","iso2":"CN","iso3":"CHN","admin_name":"Sichuan","capital":"minor","population":"3702847","id":"1156516335"}},{"type":"Feature","id":201,"geometry":{"type":"Point","coordinates":[-73.561700000000002,45.508899999999997]},"properties":{"FID":201,"city":"Montréal","city_ascii":"Montreal","lat":45.508899999999997,"lng":-73.561700000000002,"country":"Canada","iso2":"CA","iso3":"CAN","admin_name":"Quebec","capital":" ","population":"3675219","id":"1124586170"}},{"type":"Feature","id":202,"geometry":{"type":"Point","coordinates":[119.29640000000001,26.074300000000001]},"properties":{"FID":202,"city":"Fuzhou","city_ascii":"Fuzhou","lat":26.074300000000001,"lng":119.29640000000001,"country":"China","iso2":"CN","iso3":"CHN","admin_name":"Fujian","capital":"admin","population":"3671192","id":"1156188037"}},{"type":"Feature","id":203,"geometry":{"type":"Point","coordinates":[106.619,23.902999999999999]},"properties":{"FID":203,"city":"Baicheng","city_ascii":"Baicheng","lat":23.902999999999999,"lng":106.619,"country":"China","iso2":"CN","iso3":"CHN","admin_name":"Guangxi","capital":"minor","population":"3669400","id":"1156981113"}},{"type":"Feature","id":204,"geometry":{"type":"Point","coordinates":[118.4331,31.352599999999999]},"properties":{"FID":204,"city":"Wuhu","city_ascii":"Wuhu","lat":31.352599999999999,"lng":118.4331,"country":"China","iso2":"CN","iso3":"CHN","admin_name":"Anhui","capital":"minor","population":"3644420","id":"1156315512"}},{"type":"Feature","id":205,"geometry":{"type":"Point","coordinates":[109.7341,38.285800000000002]},"properties":{"FID":205,"city":"Yulinshi","city_ascii":"Yulinshi","lat":38.285800000000002,"lng":109.7341,"country":"China","iso2":"CN","iso3":"CHN","admin_name":"Shaanxi","capital":" ","population":"3634750","id":"1156280672"}},{"type":"Feature","id":206,"geometry":{"type":"Point","coordinates":[98.673900000000003,3.5893999999999999]},"properties":{"FID":206,"city":"Medan","city_ascii":"Medan","lat":3.5893999999999999,"lng":98.673900000000003,"country":"Indonesia","iso2":"ID","iso3":"IDN","admin_name":"Sumatera Utara","capital":"admin","population":"3632000","id":"1360543171"}},{"type":"Feature","id":207,"geometry":{"type":"Point","coordinates":[120.69929999999999,27.9938]},"properties":{"FID":207,"city":"Wenzhou","city_ascii":"Wenzhou","lat":27.9938,"lng":120.69929999999999,"country":"China","iso2":"CN","iso3":"CHN","admin_name":"Zhejiang","capital":" ","population":"3604446","id":"1156188829"}},{"type":"Feature","id":208,"geometry":{"type":"Point","coordinates":[119.974,31.811]},"properties":{"FID":208,"city":"Changzhou","city_ascii":"Changzhou","lat":31.811,"lng":119.974,"country":"China","iso2":"CN","iso3":"CHN","admin_name":"Jiangsu","capital":"minor","population":"3601079","id":"1156185511"}},{"type":"Feature","id":209,"geometry":{"type":"Point","coordinates":[115.0292,35.762700000000002]},"properties":{"FID":209,"city":"Puyang","city_ascii":"Puyang","lat":35.762700000000002,"lng":115.0292,"country":"China","iso2":"CN","iso3":"CHN","admin_name":"Henan","capital":"minor","population":"3598740","id":"1156431924"}},{"type":"Feature","id":210,"geometry":{"type":"Point","coordinates":[113.2419,35.215699999999998]},"properties":{"FID":210,"city":"Jiaozuo","city_ascii":"Jiaozuo","lat":35.215699999999998,"lng":113.2419,"country":"China","iso2":"CN","iso3":"CHN","admin_name":"Henan","capital":" ","population":"3590700","id":"1156157854"}},{"type":"Feature","id":211,"geometry":{"type":"Point","coordinates":[115.858,28.683]},"properties":{"FID":211,"city":"Nanchang","city_ascii":"Nanchang","lat":28.683,"lng":115.858,"country":"China","iso2":"CN","iso3":"CHN","admin_name":"Jiangxi","capital":"admin","population":"3576547","id":"1156198892"}},{"type":"Feature","id":212,"geometry":{"type":"Point","coordinates":[-122.3244,47.621099999999998]},"properties":{"FID":212,"city":"Seattle","city_ascii":"Seattle","lat":47.621099999999998,"lng":-122.3244,"country":"United States","iso2":"US","iso3":"USA","admin_name":"Washington","capital":" ","population":"3561397","id":"1840021117"}},{"type":"Feature","id":213,"geometry":{"type":"Point","coordinates":[3.9167000000000001,7.3963999999999999]},"properties":{"FID":213,"city":"Ibadan","city_ascii":"Ibadan","lat":7.3963999999999999,"lng":3.9167000000000001,"country":"Nigeria","iso2":"NG","iso3":"NGA","admin_name":"Oyo","capital":"admin","population":"3552000","id":"1566366407"}},{"type":"Feature","id":214,"geometry":{"type":"Point","coordinates":[-7.5833000000000004,33.533299999999997]},"properties":{"FID":214,"city":"Casablanca","city_ascii":"Casablanca","lat":33.533299999999997,"lng":-7.5833000000000004,"country":"Morocco","iso2":"MA","iso3":"MAR","admin_name":"Casablanca-Settat","capital":"admin","population":"3499000","id":"1504175315"}},{"type":"Feature","id":215,"geometry":{"type":"Point","coordinates":[-1.625,6.7000000000000002]},"properties":{"FID":215,"city":"Kumasi","city_ascii":"Kumasi","lat":6.7000000000000002,"lng":-1.625,"country":"Ghana","iso2":"GH","iso3":"GHA","admin_name":"Ashanti","capital":"admin","population":"3490030","id":"1288181103"}},{"type":"Feature","id":216,"geometry":{"type":"Point","coordinates":[104.398,31.126999999999999]},"properties":{"FID":216,"city":"Deyang","city_ascii":"Deyang","lat":31.126999999999999,"lng":104.398,"country":"China","iso2":"CN","iso3":"CHN","admin_name":"Sichuan","capital":"minor","population":"3456161","id":"1156127147"}},{"type":"Feature","id":217,"geometry":{"type":"Point","coordinates":[129.07499999999999,35.18]},"properties":{"FID":217,"city":"Busan","city_ascii":"Busan","lat":35.18,"lng":129.07499999999999,"country":"Korea, South","iso2":"KR","iso3":"KOR","admin_name":"Busan","capital":"admin","population":"3453198","id":"1410601465"}},{"type":"Feature","id":218,"geometry":{"type":"Point","coordinates":[111.749,40.841999999999999]},"properties":{"FID":218,"city":"Hohhot","city_ascii":"Hohhot","lat":40.841999999999999,"lng":111.749,"country":"China","iso2":"CN","iso3":"CHN","admin_name":"Inner Mongolia","capital":"admin","population":"3446100","id":"1156210167"}},{"type":"Feature","id":219,"geometry":{"type":"Point","coordinates":[108.08499999999999,24.693000000000001]},"properties":{"FID":219,"city":"Hechi","city_ascii":"Hechi","lat":24.693000000000001,"lng":108.08499999999999,"country":"China","iso2":"CN","iso3":"CHN","admin_name":"Guangxi","capital":"minor","population":"3417945","id":"1156167204"}},{"type":"Feature","id":220,"geometry":{"type":"Point","coordinates":[3.0589,36.753900000000002]},"properties":{"FID":220,"city":"Algiers","city_ascii":"Algiers","lat":36.753900000000002,"lng":3.0589,"country":"Algeria","iso2":"DZ","iso3":"DZA","admin_name":"Alger","capital":"primary","population":"3415811","id":"1012973369"}},{"type":"Feature","id":221,"geometry":{"type":"Point","coordinates":[118.1739,39.629399999999997]},"properties":{"FID":221,"city":"Tangshan","city_ascii":"Tangshan","lat":39.629399999999997,"lng":118.1739,"country":"China","iso2":"CN","iso3":"CHN","admin_name":"Hebei","capital":" ","population":"3399231","id":"1156904299"}},{"type":"Feature","id":222,"geometry":{"type":"Point","coordinates":[110.7987,32.628999999999998]},"properties":{"FID":222,"city":"Shiyan","city_ascii":"Shiyan","lat":32.628999999999998,"lng":110.7987,"country":"China","iso2":"CN","iso3":"CHN","admin_name":"Hubei","capital":"minor","population":"3398000","id":"1156383921"}},{"type":"Feature","id":223,"geometry":{"type":"Point","coordinates":[80.950000000000003,26.850000000000001]},"properties":{"FID":223,"city":"Lucknow","city_ascii":"Lucknow","lat":26.850000000000001,"lng":80.950000000000003,"country":"India","iso2":"IN","iso3":"IND","admin_name":"Uttar Pradesh","capital":"admin","population":"3382000","id":"1356891790"}},{"type":"Feature","id":224,"geometry":{"type":"Point","coordinates":[59.543300000000002,36.3264]},"properties":{"FID":224,"city":"Mashhad","city_ascii":"Mashhad","lat":36.3264,"lng":59.543300000000002,"country":"Iran","iso2":"IR","iso3":"IRN","admin_name":"Khorāsān-e Raẕavī","capital":"admin","population":"3372090","id":"1364123206"}},{"type":"Feature","id":225,"geometry":{"type":"Point","coordinates":[-122.4449,37.755800000000001]},"properties":{"FID":225,"city":"San Francisco","city_ascii":"San Francisco","lat":37.755800000000001,"lng":-122.4449,"country":"United States","iso2":"US","iso3":"USA","admin_name":"California","capital":" ","population":"3364979","id":"1840021543"}},{"type":"Feature","id":226,"geometry":{"type":"Point","coordinates":[-1.4028,6.6943999999999999]},"properties":{"FID":226,"city":"Boankra","city_ascii":"Boankra","lat":6.6943999999999999,"lng":-1.4028,"country":"Ghana","iso2":"GH","iso3":"GHA","admin_name":"Ashanti","capital":" ","population":"3348000","id":"1288164978"}},{"type":"Feature","id":227,"geometry":{"type":"Point","coordinates":[55.297199999999997,25.263100000000001]},"properties":{"FID":227,"city":"Dubai","city_ascii":"Dubai","lat":25.263100000000001,"lng":55.297199999999997,"country":"United Arab Emirates","iso2":"AE","iso3":"ARE","admin_name":"Dubayy","capital":"admin","population":"3331420","id":"1784736618"}},{"type":"Feature","id":228,"geometry":{"type":"Point","coordinates":[122.994,41.107999999999997]},"properties":{"FID":228,"city":"Anshan","city_ascii":"Anshan","lat":41.107999999999997,"lng":122.994,"country":"China","iso2":"CN","iso3":"CHN","admin_name":"Liaoning","capital":" ","population":"3325372","id":"1156901825"}},{"type":"Feature","id":229,"geometry":{"type":"Point","coordinates":[107.238,34.363]},"properties":{"FID":229,"city":"Baojishi","city_ascii":"Baojishi","lat":34.363,"lng":107.238,"country":"China","iso2":"CN","iso3":"CHN","admin_name":"Shaanxi","capital":" ","population":"3321853","id":"1156101096"}},{"type":"Feature","id":230,"geometry":{"type":"Point","coordinates":[108.654,21.981000000000002]},"properties":{"FID":230,"city":"Qinzhou","city_ascii":"Qinzhou","lat":21.981000000000002,"lng":108.654,"country":"China","iso2":"CN","iso3":"CHN","admin_name":"Guangxi","capital":"minor","population":"3304400","id":"1156106602"}},{"type":"Feature","id":231,"geometry":{"type":"Point","coordinates":[106.63,26.646999999999998]},"properties":{"FID":231,"city":"Guiyang","city_ascii":"Guiyang","lat":26.646999999999998,"lng":106.63,"country":"China","iso2":"CN","iso3":"CHN","admin_name":"Guizhou","capital":"admin","population":"3299724","id":"1156932620"}},{"type":"Feature","id":232,"geometry":{"type":"Point","coordinates":[117.389,32.917000000000002]},"properties":{"FID":232,"city":"Bengbu","city_ascii":"Bengbu","lat":32.917000000000002,"lng":117.389,"country":"China","iso2":"CN","iso3":"CHN","admin_name":"Anhui","capital":" ","population":"3296408","id":"1156440668"}},{"type":"Feature","id":233,"geometry":{"type":"Point","coordinates":[106.748,31.867999999999999]},"properties":{"FID":233,"city":"Bazhou","city_ascii":"Bazhou","lat":31.867999999999999,"lng":106.748,"country":"China","iso2":"CN","iso3":"CHN","admin_name":"Sichuan","capital":"minor","population":"3283148","id":"1156271365"}},{"type":"Feature","id":234,"geometry":{"type":"Point","coordinates":[105.593,30.533000000000001]},"properties":{"FID":234,"city":"Suining","city_ascii":"Suining","lat":30.533000000000001,"lng":105.593,"country":"China","iso2":"CN","iso3":"CHN","admin_name":"Sichuan","capital":"minor","population":"3252619","id":"1156655650"}},{"type":"Feature","id":235,"geometry":{"type":"Point","coordinates":[120.312,31.491]},"properties":{"FID":235,"city":"Wuxi","city_ascii":"Wuxi","lat":31.491,"lng":120.312,"country":"China","iso2":"CN","iso3":"CHN","admin_name":"Jiangsu","capital":"minor","population":"3245179","id":"1156019650"}},{"type":"Feature","id":236,"geometry":{"type":"Point","coordinates":[73.75,32.583300000000001]},"properties":{"FID":236,"city":"Kotla Qasim Khan","city_ascii":"Kotla Qasim Khan","lat":32.583300000000001,"lng":73.75,"country":"Pakistan","iso2":"PK","iso3":"PAK","admin_name":"Punjab","capital":" ","population":"3219375","id":"1586216308"}},{"type":"Feature","id":237,"geometry":{"type":"Point","coordinates":[107.0232,33.066400000000002]},"properties":{"FID":237,"city":"Hanzhong","city_ascii":"Hanzhong","lat":33.066400000000002,"lng":107.0232,"country":"China","iso2":"CN","iso3":"CHN","admin_name":"Shaanxi","capital":" ","population":"3211462","id":"1156382678"}},{"type":"Feature","id":238,"geometry":{"type":"Point","coordinates":[119.0078,25.4526]},"properties":{"FID":238,"city":"Putian","city_ascii":"Putian","lat":25.4526,"lng":119.0078,"country":"China","iso2":"CN","iso3":"CHN","admin_name":"Fujian","capital":"minor","population":"3210714","id":"1156811601"}},{"type":"Feature","id":239,"geometry":{"type":"Point","coordinates":[119.42400000000001,32.188000000000002]},"properties":{"FID":239,"city":"Zhenjiang","city_ascii":"Zhenjiang","lat":32.188000000000002,"lng":119.42400000000001,"country":"China","iso2":"CN","iso3":"CHN","admin_name":"Jiangsu","capital":"minor","population":"3210418","id":"1156934125"}},{"type":"Feature","id":240,"geometry":{"type":"Point","coordinates":[106.6326,30.456399999999999]},"properties":{"FID":240,"city":"Guang’an","city_ascii":"Guang'an","lat":30.456399999999999,"lng":106.6326,"country":"China","iso2":"CN","iso3":"CHN","admin_name":"Sichuan","capital":"minor","population":"3205476","id":"1156377302"}},{"type":"Feature","id":241,"geometry":{"type":"Point","coordinates":[73.091099999999997,31.416699999999999]},"properties":{"FID":241,"city":"Faisalabad","city_ascii":"Faisalabad","lat":31.416699999999999,"lng":73.091099999999997,"country":"Pakistan","iso2":"PK","iso3":"PAK","admin_name":"Punjab","capital":"minor","population":"3203846","id":"1586323916"}},{"type":"Feature","id":242,"geometry":{"type":"Point","coordinates":[113.117,36.195]},"properties":{"FID":242,"city":"Changzhi","city_ascii":"Changzhi","lat":36.195,"lng":113.117,"country":"China","iso2":"CN","iso3":"CHN","admin_name":"Shanxi","capital":"minor","population":"3180884","id":"1156057944"}},{"type":"Feature","id":243,"geometry":{"type":"Point","coordinates":[109.1895,27.7316]},"properties":{"FID":243,"city":"Tongren","city_ascii":"Tongren","lat":27.7316,"lng":109.1895,"country":"China","iso2":"CN","iso3":"CHN","admin_name":"Guizhou","capital":" ","population":"3168800","id":"1156803442"}},{"type":"Feature","id":244,"geometry":{"type":"Point","coordinates":[103.76600000000001,29.552]},"properties":{"FID":244,"city":"Leshan","city_ascii":"Leshan","lat":29.552,"lng":103.76600000000001,"country":"China","iso2":"CN","iso3":"CHN","admin_name":"Sichuan","capital":" ","population":"3160168","id":"1156203130"}},{"type":"Feature","id":245,"geometry":{"type":"Point","coordinates":[-63.197499999999998,-17.789200000000001]},"properties":{"FID":245,"city":"Santa Cruz de la Sierra","city_ascii":"Santa Cruz de la Sierra","lat":-17.789200000000001,"lng":-63.197499999999998,"country":"Bolivia","iso2":"BO","iso3":"BOL","admin_name":"Santa Cruz","capital":" ","population":"3151676","id":"1068005036"}},{"type":"Feature","id":246,"geometry":{"type":"Point","coordinates":[119.5202,39.888199999999998]},"properties":{"FID":246,"city":"Qinhuangdao","city_ascii":"Qinhuangdao","lat":39.888199999999998,"lng":119.5202,"country":"China","iso2":"CN","iso3":"CHN","admin_name":"Hebei","capital":" ","population":"3146300","id":"1156091093"}},{"type":"Feature","id":247,"geometry":{"type":"Point","coordinates":[75.799999999999997,26.899999999999999]},"properties":{"FID":247,"city":"Jaipur","city_ascii":"Jaipur","lat":26.899999999999999,"lng":75.799999999999997,"country":"India","iso2":"IN","iso3":"IND","admin_name":"Rājasthān","capital":"admin","population":"3073350","id":"1356293537"}},{"type":"Feature","id":248,"geometry":{"type":"Point","coordinates":[112.73399999999999,38.415999999999997]},"properties":{"FID":248,"city":"Xinzhou","city_ascii":"Xinzhou","lat":38.415999999999997,"lng":112.73399999999999,"country":"China","iso2":"CN","iso3":"CHN","admin_name":"Shanxi","capital":"minor","population":"3067501","id":"1156617534"}},{"type":"Feature","id":249,"geometry":{"type":"Point","coordinates":[103.82680000000001,36.060600000000001]},"properties":{"FID":249,"city":"Lanzhou","city_ascii":"Lanzhou","lat":36.060600000000001,"lng":103.82680000000001,"country":"China","iso2":"CN","iso3":"CHN","admin_name":"Gansu","capital":"admin","population":"3067141","id":"1156280566"}},{"type":"Feature","id":250,"geometry":{"type":"Point","coordinates":[111.279,23.476700000000001]},"properties":{"FID":250,"city":"Wuzhou","city_ascii":"Wuzhou","lat":23.476700000000001,"lng":111.279,"country":"China","iso2":"CN","iso3":"CHN","admin_name":"Guangxi","capital":"minor","population":"3061100","id":"1156620133"}},{"type":"Feature","id":251,"geometry":{"type":"Point","coordinates":[23.728100000000001,37.984200000000001]},"properties":{"FID":251,"city":"Athens","city_ascii":"Athens","lat":37.984200000000001,"lng":23.728100000000001,"country":"Greece","iso2":"GR","iso3":"GRC","admin_name":"Attikí","capital":"primary","population":"3059764","id":"1300715560"}},{"type":"Feature","id":252,"geometry":{"type":"Point","coordinates":[-117.12220000000001,32.831299999999999]},"properties":{"FID":252,"city":"San Diego","city_ascii":"San Diego","lat":32.831299999999999,"lng":-117.12220000000001,"country":"United States","iso2":"US","iso3":"USA","admin_name":"California","capital":" ","population":"3046560","id":"1840021990"}},{"type":"Feature","id":253,"geometry":{"type":"Point","coordinates":[38.740000000000002,9.0299999999999994]},"properties":{"FID":253,"city":"Addis Ababa","city_ascii":"Addis Ababa","lat":9.0299999999999994,"lng":38.740000000000002,"country":"Ethiopia","iso2":"ET","iso3":"ETH","admin_name":"Ādīs Ābeba","capital":"primary","population":"3041002","id":"1231824991"}},{"type":"Feature","id":254,"geometry":{"type":"Point","coordinates":[120.6794,24.143899999999999]},"properties":{"FID":254,"city":"Taichung","city_ascii":"Taichung","lat":24.143899999999999,"lng":120.6794,"country":"Taiwan","iso2":"TW","iso3":"TWN","admin_name":"Taichung","capital":"admin","population":"3033885","id":"1158689622"}},{"type":"Feature","id":255,"geometry":{"type":"Point","coordinates":[117.0194,32.631399999999999]},"properties":{"FID":255,"city":"Huainan","city_ascii":"Huainan","lat":32.631399999999999,"lng":117.0194,"country":"China","iso2":"CN","iso3":"CHN","admin_name":"Anhui","capital":" ","population":"3033528","id":"1156877299"}},{"type":"Feature","id":256,"geometry":{"type":"Point","coordinates":[-90.535300000000007,14.613300000000001]},"properties":{"FID":256,"city":"Guatemala City","city_ascii":"Guatemala City","lat":14.613300000000001,"lng":-90.535300000000007,"country":"Guatemala","iso2":"GT","iso3":"GTM","admin_name":"Guatemala","capital":"primary","population":"3014000","id":"1320197916"}},{"type":"Feature","id":257,"geometry":{"type":"Point","coordinates":[47.978299999999997,29.369700000000002]},"properties":{"FID":257,"city":"Kuwait City","city_ascii":"Kuwait City","lat":29.369700000000002,"lng":47.978299999999997,"country":"Kuwait","iso2":"KW","iso3":"KWT","admin_name":"Al ‘Āşimah","capital":"primary","population":"3000000","id":"1414102075"}},{"type":"Feature","id":258,"geometry":{"type":"Point","coordinates":[19.051400000000001,47.4925]},"properties":{"FID":258,"city":"Budapest","city_ascii":"Budapest","lat":47.4925,"lng":19.051400000000001,"country":"Hungary","iso2":"HU","iso3":"HUN","admin_name":"Budapest","capital":"primary","population":"2997958","id":"1348611435"}},{"type":"Feature","id":259,"geometry":{"type":"Point","coordinates":[105.7311,34.5809]},"properties":{"FID":259,"city":"Qincheng","city_ascii":"Qincheng","lat":34.5809,"lng":105.7311,"country":"China","iso2":"CN","iso3":"CHN","admin_name":"Gansu","capital":"minor","population":"2984659","id":"1156104017"}},{"type":"Feature","id":260,"geometry":{"type":"Point","coordinates":[119.527,35.417000000000002]},"properties":{"FID":260,"city":"Rizhao","city_ascii":"Rizhao","lat":35.417000000000002,"lng":119.527,"country":"China","iso2":"CN","iso3":"CHN","admin_name":"Shandong","capital":"minor","population":"2968365","id":"1156032841"}},{"type":"Feature","id":261,"geometry":{"type":"Point","coordinates":[121.0475,14.65]},"properties":{"FID":261,"city":"Quezon City","city_ascii":"Quezon City","lat":14.65,"lng":121.0475,"country":"Philippines","iso2":"PH","iso3":"PHL","admin_name":"Quezon","capital":"admin","population":"2960048","id":"1608974097"}},{"type":"Feature","id":262,"geometry":{"type":"Point","coordinates":[44.206400000000002,15.3483]},"properties":{"FID":262,"city":"Sanaa","city_ascii":"Sanaa","lat":15.3483,"lng":44.206400000000002,"country":"Yemen","iso2":"YE","iso3":"YEM","admin_name":"Amānat al ‘Āşimah","capital":"primary","population":"2957000","id":"1887750814"}},{"type":"Feature","id":263,"geometry":{"type":"Point","coordinates":[69.279700000000005,41.311100000000003]},"properties":{"FID":263,"city":"Tashkent","city_ascii":"Tashkent","lat":41.311100000000003,"lng":69.279700000000005,"country":"Uzbekistan","iso2":"UZ","iso3":"UZB","admin_name":"Toshkent","capital":"primary","population":"2956384","id":"1860331871"}},{"type":"Feature","id":264,"geometry":{"type":"Point","coordinates":[30.523299999999999,50.450000000000003]},"properties":{"FID":264,"city":"Kyiv","city_ascii":"Kyiv","lat":50.450000000000003,"lng":30.523299999999999,"country":"Ukraine","iso2":"UA","iso3":"UKR","admin_name":"Kyiv, Misto","capital":"primary","population":"2952301","id":"1804382913"}},{"type":"Feature","id":265,"geometry":{"type":"Point","coordinates":[103.8484,30.077100000000002]},"properties":{"FID":265,"city":"Meishan","city_ascii":"Meishan","lat":30.077100000000002,"lng":103.8484,"country":"China","iso2":"CN","iso3":"CHN","admin_name":"Sichuan","capital":" ","population":"2950545","id":"1156185501"}},{"type":"Feature","id":266,"geometry":{"type":"Point","coordinates":[126.63330000000001,37.4833]},"properties":{"FID":266,"city":"Incheon","city_ascii":"Incheon","lat":37.4833,"lng":126.63330000000001,"country":"Korea, South","iso2":"KR","iso3":"KOR","admin_name":"Incheon","capital":"admin","population":"2936117","id":"1410160313"}},{"type":"Feature","id":267,"geometry":{"type":"Point","coordinates":[-1.9025000000000001,52.479999999999997]},"properties":{"FID":267,"city":"Birmingham","city_ascii":"Birmingham","lat":52.479999999999997,"lng":-1.9025000000000001,"country":"United Kingdom","iso2":"GB","iso3":"GBR","admin_name":"Birmingham","capital":" ","population":"2919600","id":"1826423213"}},{"type":"Feature","id":268,"geometry":{"type":"Point","coordinates":[119.54770000000001,26.6662]},"properties":{"FID":268,"city":"Ningde","city_ascii":"Ningde","lat":26.6662,"lng":119.54770000000001,"country":"China","iso2":"CN","iso3":"CHN","admin_name":"Fujian","capital":"minor","population":"2910000","id":"1156909802"}},{"type":"Feature","id":269,"geometry":{"type":"Point","coordinates":[113.3925,22.516999999999999]},"properties":{"FID":269,"city":"Zhongshan","city_ascii":"Zhongshan","lat":22.516999999999999,"lng":113.3925,"country":"China","iso2":"CN","iso3":"CHN","admin_name":"Guangdong","capital":"minor","population":"2909633","id":"1156579621"}},{"type":"Feature","id":270,"geometry":{"type":"Point","coordinates":[122.12050000000001,37.513300000000001]},"properties":{"FID":270,"city":"Weihai","city_ascii":"Weihai","lat":37.513300000000001,"lng":122.12050000000001,"country":"China","iso2":"CN","iso3":"CHN","admin_name":"Shandong","capital":"minor","population":"2906548","id":"1156473300"}},{"type":"Feature","id":271,"geometry":{"type":"Point","coordinates":[29.050000000000001,40.183300000000003]},"properties":{"FID":271,"city":"Bursa","city_ascii":"Bursa","lat":40.183300000000003,"lng":29.050000000000001,"country":"Turkey","iso2":"TR","iso3":"TUR","admin_name":"Bursa","capital":"admin","population":"2901396","id":"1792903330"}},{"type":"Feature","id":272,"geometry":{"type":"Point","coordinates":[-93.267799999999994,44.963500000000003]},"properties":{"FID":272,"city":"Minneapolis","city_ascii":"Minneapolis","lat":44.963500000000003,"lng":-93.267799999999994,"country":"United States","iso2":"US","iso3":"USA","admin_name":"Minnesota","capital":" ","population":"2892569","id":"1840007830"}},{"type":"Feature","id":273,"geometry":{"type":"Point","coordinates":[23.600000000000001,-6.1500000000000004]},"properties":{"FID":273,"city":"Mbuji-Mayi","city_ascii":"Mbuji-Mayi","lat":-6.1500000000000004,"lng":23.600000000000001,"country":"Congo (Kinshasa)","iso2":"CD","iso3":"COD","admin_name":"Kasaï Oriental","capital":"admin","population":"2892000","id":"1180399586"}},{"type":"Feature","id":274,"geometry":{"type":"Point","coordinates":[110.3488,20.018599999999999]},"properties":{"FID":274,"city":"Haikou","city_ascii":"Haikou","lat":20.018599999999999,"lng":110.3488,"country":"China","iso2":"CN","iso3":"CHN","admin_name":"Hainan","capital":"admin","population":"2873358","id":"1156183327"}},{"type":"Feature","id":275,"geometry":{"type":"Point","coordinates":[122.24299999999999,43.654000000000003]},"properties":{"FID":275,"city":"Tongliao","city_ascii":"Tongliao","lat":43.654000000000003,"lng":122.24299999999999,"country":"China","iso2":"CN","iso3":"CHN","admin_name":"Inner Mongolia","capital":"minor","population":"2873168","id":"1156358686"}},{"type":"Feature","id":276,"geometry":{"type":"Point","coordinates":[120.453,41.570999999999998]},"properties":{"FID":276,"city":"Chaoyang","city_ascii":"Chaoyang","lat":41.570999999999998,"lng":120.453,"country":"China","iso2":"CN","iso3":"CHN","admin_name":"Liaoning","capital":" ","population":"2872857","id":"1156706927"}},{"type":"Feature","id":277,"geometry":{"type":"Point","coordinates":[-68.133300000000006,-16.495799999999999]},"properties":{"FID":277,"city":"La Paz","city_ascii":"La Paz","lat":-16.495799999999999,"lng":-68.133300000000006,"country":"Bolivia","iso2":"BO","iso3":"BOL","admin_name":"La Paz","capital":"primary","population":"2867504","id":"1068000064"}},{"type":"Feature","id":278,"geometry":{"type":"Point","coordinates":[125.7475,39.0167]},"properties":{"FID":278,"city":"Pyongyang","city_ascii":"Pyongyang","lat":39.0167,"lng":125.7475,"country":"Korea, North","iso2":"KP","iso3":"PRK","admin_name":"P’yŏngyang","capital":"primary","population":"2863000","id":"1408738594"}},{"type":"Feature","id":279,"geometry":{"type":"Point","coordinates":[-82.444699999999997,27.994499999999999]},"properties":{"FID":279,"city":"Tampa","city_ascii":"Tampa","lat":27.994499999999999,"lng":-82.444699999999997,"country":"United States","iso2":"US","iso3":"USA","admin_name":"Florida","capital":" ","population":"2861173","id":"1840015982"}},{"type":"Feature","id":280,"geometry":{"type":"Point","coordinates":[113.59699999999999,24.811]},"properties":{"FID":280,"city":"Shaoguan","city_ascii":"Shaoguan","lat":24.811,"lng":113.59699999999999,"country":"China","iso2":"CN","iso3":"CHN","admin_name":"Guangdong","capital":"minor","population":"2855131","id":"1156617066"}},{"type":"Feature","id":281,"geometry":{"type":"Point","coordinates":[114.7002,23.744299999999999]},"properties":{"FID":281,"city":"Heyuan","city_ascii":"Heyuan","lat":23.744299999999999,"lng":114.7002,"country":"China","iso2":"CN","iso3":"CHN","admin_name":"Guangdong","capital":"minor","population":"2837686","id":"1156665165"}},{"type":"Feature","id":282,"geometry":{"type":"Point","coordinates":[-47.882800000000003,-15.793900000000001]},"properties":{"FID":282,"city":"Brasília","city_ascii":"Brasilia","lat":-15.793900000000001,"lng":-47.882800000000003,"country":"Brazil","iso2":"BR","iso3":"BRA","admin_name":"Distrito Federal","capital":"primary","population":"2817068","id":"1076144436"}},{"type":"Feature","id":283,"geometry":{"type":"Point","coordinates":[32.4833,15.65]},"properties":{"FID":283,"city":"Omdurman","city_ascii":"Omdurman","lat":15.65,"lng":32.4833,"country":"Sudan","iso2":"SD","iso3":"SDN","admin_name":"Khartoum","capital":" ","population":"2805396","id":"1729912179"}},{"type":"Feature","id":284,"geometry":{"type":"Point","coordinates":[112.62,-7.9800000000000004]},"properties":{"FID":284,"city":"Malang","city_ascii":"Malang","lat":-7.9800000000000004,"lng":112.62,"country":"Indonesia","iso2":"ID","iso3":"IDN","admin_name":"Jawa Timur","capital":" ","population":"2795209","id":"1360141408"}},{"type":"Feature","id":285,"geometry":{"type":"Point","coordinates":[9.1799999999999997,48.777500000000003]},"properties":{"FID":285,"city":"Stuttgart","city_ascii":"Stuttgart","lat":48.777500000000003,"lng":9.1799999999999997,"country":"Germany","iso2":"DE","iso3":"DEU","admin_name":"Baden-Württemberg","capital":"admin","population":"2787724","id":"1276171358"}},{"type":"Feature","id":286,"geometry":{"type":"Point","coordinates":[125.104,46.588999999999999]},"properties":{"FID":286,"city":"Daqing","city_ascii":"Daqing","lat":46.588999999999999,"lng":125.104,"country":"China","iso2":"CN","iso3":"CHN","admin_name":"Heilongjiang","capital":"minor","population":"2781562","id":"1156403962"}},{"type":"Feature","id":287,"geometry":{"type":"Point","coordinates":[12.482799999999999,41.893300000000004]},"properties":{"FID":287,"city":"Rome","city_ascii":"Rome","lat":41.893300000000004,"lng":12.482799999999999,"country":"Italy","iso2":"IT","iso3":"ITA","admin_name":"Lazio","capital":"primary","population":"2748109","id":"1380382862"}},{"type":"Feature","id":288,"geometry":{"type":"Point","coordinates":[-73.949600000000004,40.650100000000002]},"properties":{"FID":288,"city":"Brooklyn","city_ascii":"Brooklyn","lat":40.650100000000002,"lng":-73.949600000000004,"country":"United States","iso2":"US","iso3":"USA","admin_name":"New York","capital":" ","population":"2736074","id":"1840034030"}},{"type":"Feature","id":289,"geometry":{"type":"Point","coordinates":[120.2975,22.614999999999998]},"properties":{"FID":289,"city":"Kaohsiung","city_ascii":"Kaohsiung","lat":22.614999999999998,"lng":120.2975,"country":"Taiwan","iso2":"TW","iso3":"TWN","admin_name":"Kaohsiung","capital":"admin","population":"2733964","id":"1158331334"}},{"type":"Feature","id":290,"geometry":{"type":"Point","coordinates":[112.94540000000001,27.831299999999999]},"properties":{"FID":290,"city":"Xiangtan","city_ascii":"Xiangtan","lat":27.831299999999999,"lng":112.94540000000001,"country":"China","iso2":"CN","iso3":"CHN","admin_name":"Hunan","capital":" ","population":"2726181","id":"1156195684"}},{"type":"Feature","id":291,"geometry":{"type":"Point","coordinates":[117.017,25.076000000000001]},"properties":{"FID":291,"city":"Longyan","city_ascii":"Longyan","lat":25.076000000000001,"lng":117.017,"country":"China","iso2":"CN","iso3":"CHN","admin_name":"Fujian","capital":"minor","population":"2723637","id":"1156012979"}},{"type":"Feature","id":292,"geometry":{"type":"Point","coordinates":[109.9532,40.621299999999998]},"properties":{"FID":292,"city":"Baotou","city_ascii":"Baotou","lat":40.621299999999998,"lng":109.9532,"country":"China","iso2":"CN","iso3":"CHN","admin_name":"Inner Mongolia","capital":" ","population":"2709378","id":"1156032751"}},{"type":"Feature","id":293,"geometry":{"type":"Point","coordinates":[114.48699999999999,36.600999999999999]},"properties":{"FID":293,"city":"Handan","city_ascii":"Handan","lat":36.600999999999999,"lng":114.48699999999999,"country":"China","iso2":"CN","iso3":"CHN","admin_name":"Hebei","capital":"minor","population":"2708015","id":"1156957080"}},{"type":"Feature","id":294,"geometry":{"type":"Point","coordinates":[121.148,41.128999999999998]},"properties":{"FID":294,"city":"Jinzhou","city_ascii":"Jinzhou","lat":41.128999999999998,"lng":121.148,"country":"China","iso2":"CN","iso3":"CHN","admin_name":"Liaoning","capital":" ","population":"2703853","id":"1156157151"}},{"type":"Feature","id":295,"geometry":{"type":"Point","coordinates":[80.331900000000005,26.4499]},"properties":{"FID":295,"city":"Kanpur","city_ascii":"Kanpur","lat":26.4499,"lng":80.331900000000005,"country":"India","iso2":"IN","iso3":"IND","admin_name":"Uttar Pradesh","capital":" ","population":"2701324","id":"1356575238"}},{"type":"Feature","id":296,"geometry":{"type":"Point","coordinates":[-104.8758,39.762]},